,id,seller,area_total,area_kitchen,area_living,floor,rooms,layout,ceiling,bathrooms_shared,bathrooms_private,windows_court,windows_street,balconies,loggias,condition,phones,building_id,new,latitude,longitude,district,street,address,constructed,material,stories,elevator_without,elevator_passenger,elevator_service,parking,garbage_chute,heating,distance_from_center,angle,average_room_size
22042,22050,4,52.0,9.5,31.0,5,2,3,2.64,0,1,2,2,1,0,1,1,5577,0,55.541504,37.575441,6,Старонародная улица,2,1998,3,14,False,True,False,3,True,0,0.19315891995225726,-3.119994160325951,26.0
16475,16481,4,140.0,10.7,30.9,2,3,3,2.8,0,0,2,2,0,0,3,1,3372,0,55.696534,37.499408,7,Мичуринский проспект,29,1996,2,19,True,True,True,0,True,0,0.08878717038265921,-2.0141090978045546,46.666666666666664
10839,10843,3,66.3,11.6,27.7,20,2,3,2.65,0,2,0,1,0,0,4,1,8281,1,55.617017,37.413718,11,Саларьево Парк ЖК,23,2021,3,24,False,True,True,1,False,4,0.20334942381514928,-2.1874631775168227,33.15
22106,22114,4,71.7,8.0,48.0,3,3,1,2.8,1,0,1,0,1,0,3,1,4335,0,55.679925,37.598573,6,Нагорная улица,24К10,1960,0,5,True,False,False,3,False,0,0.05788614609500584,2.8078873998291423,23.900000000000002
15472,15477,4,164.0,18.0,105.0,3,1,3,3.6,2,0,1,1,0,0,1,2,4800,0,55.750368,37.58526,0,Малый Каковинский переулок,4С1,1917,0,5,False,True,False,3,False,4,0.016731993113278817,0.3442810721168531,164.0
15651,15656,4,66.0,10.0,45.0,4,3,3,2.9,1,0,1,0,0,1,2,2,4572,0,55.84073000000001,37.494404,1,Кронштадтский бульвар,6к4,2015,2,25,True,True,True,0,False,0,0.13608928334529488,-0.6765708309209716,22.0
11357,11361,3,70.68,21.1,34.6,2,2,3,3.0,0,2,0,1,0,0,4,1,4035,1,55.85718000000001,37.627687,2,Сельскохозяйственная улица,вл35,2020,2,11,False,True,True,1,False,0,0.1316534181288076,0.37380320163730335,35.34
21620,21628,3,37.7,10.7,35.2,18,1,3,2.8,0,0,1,0,0,1,4,1,5121,1,55.784303,37.562775,1,Ленинградский проспект,29к3,2019,2,19,True,True,True,0,True,0,0.052460630090968983,-0.32673999194173436,37.7
16312,16318,4,70.0,10.7,30.9,15,3,3,2.8,0,1,2,2,0,1,3,1,5225,0,55.67694,37.539266,6,улица Гарибальди,11,2006,4,17,False,True,True,1,True,0,0.07038881990988176,-2.531191294375089,23.333333333333332
4857,4860,1,54.6,10.7,30.9,2,2,3,2.8,0,0,2,2,0,0,4,1,2838,0,55.53175400000001,37.520527,6,Чечерский проезд,88,1996,3,13,True,True,True,3,False,0,0.21129330102656238,-2.858175699851915,27.3
17221,17227,4,65.0,15.0,44.0,12,2,2,3.2,0,1,0,1,0,0,2,2,6685,0,55.727693,37.535359,7,Воробьевское шоссе,4,2017,2,16,True,True,True,0,True,0,0.0447921470456107,-1.7260189435615916,32.5
19928,19935,4,33.02,6.0,16.0,4,1,3,2.8,1,0,1,0,0,0,2,1,4703,1,55.643846,37.387577,7,м. Солнцево,Лучи ЖК,2013,2,23,False,True,True,3,False,4,0.2124081220192118,-2.0123520604936616,33.02
20579,20586,4,37.6,8.0,13.0,3,1,3,3.0,1,0,1,0,0,0,1,1,4670,0,55.730948,37.64401,0,Шлюзовая набережная,2А,2017,2,7,True,True,True,0,True,4,0.0645018668891374,1.6277225972983183,37.6
20082,20089,1,86.0,10.7,41.0,12,3,2,2.5,0,1,2,2,0,0,1,1,3379,0,55.884903,37.538898,1,мкр. 18-й,К1824,1995,2,14,True,True,True,1,True,0,0.155702604335899,-0.264565214962021,28.666666666666668
2906,2908,1,37.0,8.5,17.0,14,1,3,2.8,0,1,1,0,0,1,1,2,2205,0,55.67160500000001,37.504079,7,проспект Вернадского,61к2,2017,7,14,False,True,True,1,False,4,0.09836640105544071,-2.266067127963912,37.0
12327,12331,1,44.7,7.0,29.0,7,2,1,2.8,0,1,0,1,0,1,1,2,7244,0,55.606929,37.71018,5,Домодедовская улица,24К1,1975,3,12,False,True,True,3,False,0,0.1826260890771764,2.3450489878112544,22.35
17714,17720,1,35.3,9.6,19.5,4,1,3,2.7,1,0,1,0,0,1,1,1,9288,0,55.803049,37.760827,3,Сиреневый бульвар,1К2,1970,3,14,True,True,True,3,True,0,0.19370460074650275,1.2097260295478085,35.3
4025,4028,1,44.0,7.0,30.0,1,2,1,2.8,1,0,1,0,1,0,2,1,3084,0,55.748518,37.813881,3,Союзный проспект,14/9,1968,3,9,False,True,False,1,False,0,0.2346803971746554,1.5115315882272704,22.0
15228,15233,1,51.5,9.8,30.3,5,2,1,2.8,0,1,1,0,0,1,2,1,1088,0,55.752951,37.713072,4,шоссе Энтузиастов,11АК1,2000,0,17,False,True,False,3,False,0,0.13471269639874225,1.4342821022174164,25.75
18677,18683,1,39.8,8.1,18.6,7,1,3,2.7,0,1,2,2,0,1,1,1,2268,0,55.754213,37.703649,4,мкр. 5-й,к516,1969,0,14,True,True,True,3,True,0,0.12557465286691294,1.4141123284825095,39.8
6324,6327,3,61.7,12.6,30.7,6,2,3,2.89,1,1,1,0,1,0,4,1,5540,1,55.554695,37.513916,11,Скандинавия ЖК,4.2,2019,7,14,False,True,True,0,False,4,0.1915418594103267,-2.791496315966316,30.85
3806,3809,0,36.3,7.3,17.7,9,1,3,2.8,1,0,1,0,0,1,0,2,2996,0,55.73767900000001,37.829826,3,Вешняковская улица,9к1,1991,3,22,False,True,True,3,True,0,0.2502321071026266,1.5585628507893559,36.3
13141,13145,3,38.65,10.0,16.8,8,1,3,2.7,0,1,2,2,0,1,4,1,6703,1,55.52117,37.354734,11,Новые Ватутинки центральный мкр,к2/3,2022,2,16,True,True,True,3,False,1,0.3100490038822408,-2.3301222367415053,38.65
9975,9979,2,35.0,10.0,20.0,4,1,3,2.48,1,0,1,0,0,1,1,1,2575,0,55.71964200000001,37.801071,4,улица Хлобыстова,8К2,1984,4,16,False,True,False,3,True,0,0.22196416805027672,1.6383173751578877,35.0
2090,2090,3,144.94,10.7,30.9,20,3,3,2.8,0,0,2,2,0,0,4,1,1274,1,55.847973,37.628882,2,проезд Серебрякова,2Ак3,2020,7,24,False,True,True,0,False,4,0.12359958759154743,0.410012652033734,48.31333333333333
11880,11884,3,56.4,15.8,26.8,11,2,3,2.8,1,1,1,0,0,0,4,1,5435,1,55.719896,37.692663,4,Метрополия ЖК,2,2021,4,30,False,True,True,0,True,0,0.11400492282470821,1.7002915569365993,28.2
16313,16319,3,110.9,11.8,58.0,14,3,3,2.8,0,1,2,2,0,1,4,1,7638,1,55.659231000000005,37.560835,6,Херсонская улица,43,2012,2,23,True,True,True,2,True,3,0.07769027454453926,-2.8974768598472407,36.96666666666667
20043,20050,1,122.0,25.0,90.0,2,3,2,3.1,2,0,0,1,0,1,3,2,9196,0,55.756786,37.418362,7,улица Крылатские Холмы,33к1,2008,2,34,False,True,True,0,False,0,0.1627672806588928,-1.4341764618188295,40.666666666666664
16048,16054,3,36.0,8.1,18.5,14,1,3,2.8,1,0,2,2,0,0,4,1,1130,1,55.776335,37.736905,3,Вольная улица,28/4к3,2020,3,25,False,True,True,0,True,4,0.16273049123062233,1.3115447677904675,36.0
1923,1923,3,51.1,10.7,28.5,2,2,3,2.72,0,2,1,0,0,0,4,1,8007,1,55.802857,37.598609,2,Складочная улица,6к7,2021,2,14,False,True,True,1,False,4,0.0708339022612823,0.2715054810592373,25.55
11325,11329,2,45.6,6.0,30.0,7,2,1,2.8,0,0,2,2,0,0,1,1,942,0,55.811138,37.808689,3,Щелковское шоссе,79К1,1971,3,9,False,True,False,1,False,0,0.24151877720563134,1.2484120388019602,22.8
12284,12288,4,198.0,30.0,150.0,10,5,1,3.0,2,0,1,1,0,0,3,2,2922,0,55.655214,37.47315,7,проспект Вернадского,92,2003,2,12,True,True,True,2,True,0,0.13281288759260867,-2.2116284439709295,39.6
1116,1116,4,55.0,18.0,24.0,6,1,3,2.8,0,0,1,0,0,0,0,2,7818,0,55.77919,37.574309,1,Верхняя улица,20к1,2019,2,24,True,True,True,0,True,4,0.04488656055183835,-0.11843268637702807,55.0
732,732,0,57.1,10.0,35.6,9,2,3,2.8,0,1,1,0,0,1,2,1,1208,0,55.847705000000005,37.370581,8,Пятницкое шоссе,21,2013,3,25,True,True,True,0,True,0,0.237661348292075,-1.0748853521528121,28.55
5160,5163,3,43.7,10.7,30.9,17,1,3,2.8,0,0,0,1,0,0,4,1,5379,1,55.600893000000006,37.724077,5,Каширское шоссе,65К1,2018,2,20,True,True,True,0,True,0,0.1968560341089893,2.3176085837460576,43.7
2785,2786,4,155.0,10.7,30.9,3,4,3,3.0,0,3,1,0,0,0,3,1,3960,0,55.715601,37.526268,7,Мичуринский проспект,6К1,2003,2,16,True,True,True,1,True,3,0.056632936141187536,-1.9132418958619615,38.75
22004,22012,2,67.0,9.0,44.0,4,3,3,2.64,0,1,1,1,2,0,2,2,9292,0,55.59686899999999,37.593704,5,Кировоградская улица,44К2,1971,3,12,False,True,True,3,True,0,0.13846774956120778,3.039649641173124,22.333333333333332
11125,11129,4,202.0,25.0,130.0,8,6,1,2.8,2,0,2,2,1,0,2,1,5400,0,55.722142000000005,37.618569,0,Мытная улица,7с1,2013,0,14,True,True,True,2,True,0,0.0409053423696026,1.8807280422581778,33.666666666666664
19578,19585,0,74.0,14.0,41.0,15,3,1,2.8,0,1,1,0,1,0,1,1,872,0,55.700101,37.941981,4,улица Вертолетчиков,2Ак3,2018,2,16,True,True,True,3,True,0,0.3640085973812172,1.6657633298544663,24.666666666666668
8706,8710,2,53.0,6.5,34.7,8,3,1,2.8,1,0,1,0,1,0,1,1,6693,0,55.722497,37.816711,3,улица Молдагуловой,16К2,1970,3,9,True,True,True,1,True,0,0.23740800013760993,1.6218735432058362,17.666666666666668
689,689,3,69.84,10.7,30.9,7,3,3,2.8,0,0,2,2,1,0,4,1,8204,0,55.860746,37.372431,8,Муравская улица,42к1,2019,2,25,True,True,True,0,False,0,0.24255417590534867,-1.023945566018575,23.28
18304,18310,4,130.0,25.0,68.0,2,3,3,3.0,2,0,1,0,1,0,3,2,9167,0,55.757273,37.649732,0,Казарменный переулок,3,2009,2,11,True,True,True,0,True,0,0.07368841730809138,1.258289558859814,43.333333333333336
22390,22398,0,74.0,10.7,30.9,1,3,3,2.8,0,0,2,2,0,0,4,1,6923,0,55.497521,36.919941,10,улица Десятинная,13,2019,7,3,True,False,False,3,False,4,0.7009861392310944,-1.915835262246984,24.666666666666668
12503,12507,2,36.8,9.0,19.0,3,1,3,2.64,0,0,2,2,1,0,1,1,1195,0,55.84768,37.352857,8,переулок 3-й Митинский,4,1993,3,17,False,True,True,1,True,0,0.25337946973962017,-1.1082630532077173,36.8
3481,3484,4,182.5,17.2,30.9,3,3,3,2.8,2,1,1,1,1,1,2,2,880,0,55.740436,37.601708,0,1-й Зачатьевский переулок,8С3,2011,2,7,False,True,False,0,False,4,0.02284855792396722,1.3133220298143822,60.833333333333336
14141,14146,1,60.2,10.7,33.0,2,2,1,2.8,0,1,2,2,0,0,4,1,6148,0,55.701262,37.651583,5,Автозаводская улица,23Бк2,2019,7,24,False,True,True,0,False,4,0.07932433366595838,2.0047924662123116,30.1
14455,14460,4,60.1,6.0,48.2,9,3,1,2.64,0,1,0,1,0,1,1,1,25,0,55.813066000000006,37.64471,2,Маломосковская улица,8,1969,3,9,False,True,False,3,True,0,0.10194007392258976,0.6926578787966284,20.033333333333335
3495,3498,4,198.8,10.7,30.9,4,6,3,3.4,2,0,1,1,2,0,4,1,8316,0,55.77486700000001,37.601609,0,улица Фадеева,4А,2013,2,10,True,True,True,0,True,0,0.04586756468001109,0.5001565389099115,33.13333333333333
22730,22738,4,55.0,8.0,36.0,3,2,1,3.0,0,1,0,1,0,0,1,2,804,0,55.74598,37.784955,3,Перовская улица,45,1956,0,5,True,False,False,3,False,0,0.2056564907556672,1.5155200734543843,27.5
17759,17765,1,43.0,6.0,29.0,1,2,1,2.6,0,1,1,0,0,0,2,1,791,0,55.803757,37.721319,3,Знаменская улица,39,1966,0,5,True,False,False,3,True,0,0.15767345526745113,1.1168721385611153,21.5
4519,4522,0,48.0,16.0,19.0,3,1,3,2.8,1,0,1,0,0,1,0,1,1340,0,55.559746,37.575639,6,Феодосийская улица,7к5,2018,2,20,True,True,True,1,False,1,0.17491700834697946,-3.1188735414349464,48.0
2466,2466,4,696.0,18.1,338.0,8,6,1,2.8,4,0,1,1,3,2,0,2,6720,0,55.714186,37.477031,7,Староволынская улица,12к2,2010,2,9,False,True,True,0,True,1,0.1045966033268414,-1.767400125597961,116.0
22899,22907,2,32.1,6.0,20.0,1,1,3,2.64,1,0,2,2,0,0,1,2,1435,0,55.633475,37.667968,5,Кавказский бульвар,14,1966,3,5,True,False,False,3,False,0,0.13430023596048946,2.423573096852279,32.1
2197,2197,1,32.0,7.3,16.9,1,1,3,2.85,0,1,2,2,0,0,1,1,4341,0,55.850626,37.657790000000006,2,улица Амундсена,3К1,1955,0,4,True,False,False,3,False,0,0.1398913502991758,0.592990642818046,32.0
3613,3616,4,38.7,11.6,15.8,7,1,3,2.8,1,0,2,2,1,0,1,1,2378,0,55.80781,37.789896,3,5-я Парковая улица,62Б,2017,3,18,True,False,False,3,True,0,0.2226571113963268,1.235847028145137,38.7
9532,9536,0,40.0,10.5,20.1,9,1,3,2.8,0,1,0,1,1,0,2,1,8784,0,55.6572,37.763594,4,Новомарьинская улица,15,1998,3,18,False,True,True,1,True,0,0.1996063011439559,1.969097247669737,40.0
18510,18516,4,56.5,14.6,31.3,19,2,3,2.8,1,0,2,2,0,0,4,1,5782,1,55.707426,37.934031,4,Квартал Некрасовка ЖК,к8,2020,2,23,False,True,True,1,False,4,0.35545996637131877,1.6473688277911058,28.25
18147,18153,3,42.9,16.0,15.3,3,1,3,2.65,0,1,1,0,1,0,4,1,5633,1,55.72561,37.775397,4,Саларьево Парк ЖК,31,2022,3,16,False,True,True,1,False,4,0.1959914952314501,1.6167730269911018,42.9
3702,3705,0,51.3,7.6,31.1,1,2,1,2.8,0,1,1,0,0,1,3,1,7925,2,55.769575,37.831641,3,Саянская улица,7К2,2013,3,12,False,True,False,3,True,0,0.2544411656664501,1.4329725254853767,25.65
18532,18538,1,46.3,20.0,19.4,4,1,3,3.2,0,1,1,0,0,1,0,1,6085,1,55.751503,37.699463,4,м. Авиамоторная,Символ ЖК,2019,2,22,True,True,True,3,False,4,0.12103397013383758,1.4308324139412254,46.3
23129,23137,3,80.41,12.2,47.5,6,3,3,2.7,0,2,2,2,0,1,4,1,6703,1,55.52117,37.354734,11,Новые Ватутинки центральный мкр,к2/3,2022,2,16,True,True,True,3,False,1,0.3100490038822408,-2.3301222367415053,26.80333333333333
17262,17268,0,52.0,9.0,30.2,2,2,1,2.64,0,1,1,1,0,0,1,2,7417,0,55.86697,37.569036,1,мкр. 12-й,к1205,1982,3,12,True,True,False,3,True,0,0.13277406264195024,-0.0797432481257839,26.0
10639,10643,4,52.0,11.4,20.2,5,1,3,2.8,0,1,1,0,0,1,4,1,936,1,55.715824,37.388879,7,Барвихинская улица,6,2020,2,10,False,True,True,0,False,4,0.19165730413484097,-1.669013916023061,52.0
15459,15464,4,131.0,17.0,67.0,5,4,3,2.8,0,3,0,1,0,0,4,1,432,1,55.783357,37.599381,0,Новослободская улица,24,2019,7,10,True,False,False,0,True,4,0.052595550721474205,0.38532093477517987,32.75
1219,1219,3,51.5,8.9,26.4,23,2,3,2.8,0,2,0,1,1,1,4,1,6512,1,55.854987,37.559155,1,Дмитровское шоссе,71к1,2021,2,24,False,True,True,1,True,0,0.12209521723868048,-0.16834869316506043,25.75
884,884,0,45.0,5.5,29.0,5,2,1,2.64,0,1,1,0,1,0,2,2,7031,0,55.844713,37.430202,8,улица Фабрициуса,44К2,1970,4,12,False,True,False,3,True,0,0.18559221608512128,-0.9357561515179909,22.5
19324,19331,0,109.4,10.7,30.9,2,4,3,2.8,1,1,1,0,1,0,0,1,1233,0,55.8699,37.687407,2,Шушенская улица,8,2013,7,21,False,False,True,3,False,4,0.17297654239517127,0.6727938176937104,27.35
22559,22567,4,79.6,29.2,27.2,17,2,3,2.8,1,1,2,2,0,0,4,1,1352,1,55.78686999999999,37.494979,8,3-я Хорошевская улица,7к2,2019,2,22,False,True,True,1,False,0,0.09946423721261204,-1.0176865299016558,39.8
9413,9417,4,119.0,17.6,67.0,12,4,1,3.3,0,0,1,1,0,0,3,1,2000,0,55.710839,37.605068,5,улица Орджоникидзе,1,2017,2,18,True,True,True,0,True,0,0.034834050399549586,2.322155842467087,29.75
4752,4755,1,39.0,8.5,21.0,9,1,3,2.8,0,1,1,0,0,1,1,2,1002,0,55.552581,37.558364000000005,6,Изюмская улица,22,2002,3,9,False,True,True,3,True,0,0.1832728157762428,-3.025391505064252,39.0
16423,16429,4,210.0,10.7,168.0,5,4,3,2.8,1,1,2,2,0,0,2,1,6836,0,55.72746,37.479977000000005,7,Давыдковская улица,3,2004,7,43,True,True,True,0,True,4,0.09989239862037283,-1.6425135703364317,52.5
11834,11838,4,54.4,8.7,32.2,2,2,3,2.65,0,0,1,1,0,0,3,1,3418,0,55.736838,37.853991,3,Новокосинская улица,13К2,2001,2,25,False,True,True,1,True,0,0.2743873646761729,1.5627050054219755,27.2
9116,9120,3,115.2,20.3,65.0,17,3,3,2.7,2,0,0,1,0,0,4,1,8224,1,55.555184,37.554008,6,улица Поляны,5Ак1,2019,2,33,False,True,True,3,False,4,0.18125150859255978,-2.999852855852402,38.4
22315,22323,3,38.65,10.0,16.8,11,1,3,2.7,0,1,2,2,0,1,4,1,6703,1,55.52117,37.354734,11,Новые Ватутинки центральный мкр,к2/3,2022,2,16,True,True,True,3,False,1,0.3100490038822408,-2.3301222367415053,38.65
10233,10237,3,126.8,10.7,30.9,2,3,3,2.8,0,0,2,2,0,0,4,1,2434,1,55.662136,37.512559,6,улица Эльдара Рязанова,2,2019,7,17,False,True,True,0,False,4,0.09874111990699645,-2.3950771782065803,42.266666666666666
16146,16152,2,33.0,6.0,20.0,5,1,3,2.64,1,0,1,0,0,1,1,1,6010,0,55.697929,37.809542,4,Самаркандский бульвар,34К3,1967,3,5,True,False,False,3,False,0,0.23283812846444157,1.7290282067853877,33.0
10485,10489,1,76.2,10.3,44.4,12,3,1,2.64,0,1,1,0,1,1,1,1,2242,0,55.571215,37.571273,6,улица Знаменские Садки,3К5,1990,3,17,False,True,True,3,True,0,0.16361554463659184,-3.0905997445224087,25.400000000000002
22442,22450,4,56.6,15.5,18.4,4,1,3,3.2,1,0,1,0,0,1,4,1,8883,0,55.754578,37.694953000000005,4,улица Золоторожский Вал,11С9,2013,7,13,False,True,True,3,False,4,0.11705473404236098,1.3994393092931476,56.6
7815,7818,4,225.0,10.7,30.9,2,6,3,2.8,0,0,1,1,0,0,0,1,1611,0,55.738049,37.417733,7,Ельнинская улица,15к2,2013,7,12,False,True,False,3,False,4,0.16191597560601637,-1.5496039215730104,37.5
21465,21473,4,53.47,9.1,32.1,6,2,3,2.8,0,0,2,2,0,0,4,0,1321,0,55.839421,37.385349,8,Пятницкое шоссе,9,1992,3,17,False,True,False,3,False,0,0.22073071716276293,-1.0760585917663217,26.735
22975,22983,0,61.4,6.0,43.9,5,3,2,2.8,1,0,1,0,1,1,2,1,2682,0,55.607839,37.518111,6,Новоясеневский проспект,12К3,1976,3,9,False,True,False,1,True,4,0.14090894317792474,-2.6899283504784477,20.466666666666665
18820,18826,4,65.0,10.0,43.0,4,2,3,2.8,0,0,1,0,0,0,0,2,8350,0,55.755312,37.545626,0,Мантулинская улица,9к2,2019,2,20,True,True,True,0,False,4,0.0397911706042473,-1.0238652462563826,32.5
22249,22257,3,65.9,10.7,31.7,13,2,3,2.8,1,1,2,2,0,0,4,1,3823,1,55.63816,37.319763,11,15-я фаза тер.,к8,2021,2,17,False,True,True,1,False,4,0.27717493370230156,-1.9262370512196612,32.95
21593,21601,0,60.1,10.7,45.1,1,3,2,2.64,0,2,1,0,1,0,2,1,3108,0,55.851278,37.502256,1,улица Лавочкина,16К1,1968,3,9,False,True,False,3,True,0,0.13997725766362093,-0.585525041342389,20.033333333333335
16414,16420,4,103.3,10.7,30.9,20,2,3,2.8,2,0,2,2,1,0,0,1,4555,0,55.716037,37.503998,7,Минская улица,2,2017,2,39,True,True,True,0,True,0,0.07786410595756092,-1.811753243500359,51.65
19963,19970,4,64.0,10.9,34.7,5,2,1,2.8,0,1,1,0,0,1,0,2,5613,0,55.718816,37.426186,7,Рябиновая улица,3к2,2019,2,27,True,True,True,3,True,0,0.15423821159677345,-1.6734274608949615,32.0
13694,13698,4,75.0,12.0,50.0,6,3,1,3.0,1,0,1,0,0,1,2,1,9604,0,55.739808,37.501285,7,Барклая улица,7К4,2015,2,10,False,True,True,0,True,0,0.07849938279558458,-1.5046312082140196,25.0
4382,4385,4,77.6,9.0,46.0,15,3,3,2.8,1,0,1,0,0,1,2,1,2520,0,55.693597,37.577678000000006,6,проспект 60-летия Октября,19,2000,4,18,False,True,True,3,True,0,0.04106646253800562,-3.094465790160429,25.866666666666664
15231,15236,1,41.0,10.7,30.9,3,1,3,3.05,1,0,1,1,0,0,1,2,7537,0,55.748022,37.687111,4,шоссе Энтузиастов,1к1,2018,2,8,True,True,True,3,True,0,0.10833084993046847,1.4467451202141366,41.0
6981,6984,3,42.5,11.0,14.1,2,1,3,2.78,0,0,2,2,0,0,4,1,6144,1,55.879707,37.541889000000005,1,Дмитровское шоссе,107к2,2019,7,24,True,True,True,1,False,4,0.14991306667674756,-0.25437091801040773,42.5
11652,11656,4,57.7,9.9,30.9,2,2,3,2.8,0,1,2,2,1,0,0,1,8426,0,55.850368,37.578181,2,Нововладыкинский проезд,1к2,2019,7,20,True,True,True,1,True,4,0.11575898502706368,-0.012367539073905105,28.85
17856,17862,4,39.0,10.7,30.9,12,1,3,2.64,0,1,1,0,1,1,3,1,1514,0,55.577897,37.665596,5,Загорьевский проезд,5К1,1982,3,12,True,True,False,1,True,0,0.1787584194748156,2.6397939636346544,39.0
4965,4968,1,84.0,9.0,47.0,7,3,1,2.64,0,1,1,1,2,0,1,2,8574,0,55.55111,37.53755,6,Бартеневская улица,9,2001,3,14,False,True,True,3,True,0,0.18826683548817913,-2.9162706711070534,28.0
17509,17515,1,134.0,26.0,75.0,16,3,3,2.8,2,0,0,1,1,0,0,1,2885,0,55.775049,37.469692,8,проспект Маршала Жукова,41,2011,2,23,False,True,True,0,True,0,0.11712052999647997,-1.2183342144758071,44.666666666666664
11784,11788,4,39.0,6.0,44.1,9,1,3,2.8,0,1,2,2,0,1,4,1,2049,0,55.88030799999999,37.644657,2,проезд Шокальского,25,1971,3,9,False,True,False,3,False,0,0.15955057606348802,0.41990368079718826,39.0
10074,10078,1,71.5,6.3,52.3,5,4,3,2.8,0,1,1,1,1,0,4,2,4557,0,55.751021,37.717941,4,шоссе Энтузиастов,24/43,1940,7,10,False,True,False,3,False,0,0.13929753842409384,1.4527663901624686,17.875
4073,4076,1,57.2,10.7,38.2,2,3,3,2.8,0,1,2,2,0,0,1,1,2490,0,55.81815400000001,37.799149,3,Уральская улица,12/21,1968,3,9,True,True,False,3,False,0,0.23489254715814728,1.2072023786557258,19.066666666666666
21044,21051,4,38.1,10.7,30.9,14,1,3,2.74,0,0,2,2,0,0,1,1,3816,0,55.63599,37.720097,5,улица Борисовские Пруды,15к1,2004,3,17,False,True,False,3,True,0,0.17164882205206178,2.1829006532682493,38.1
870,870,3,291.46,10.7,30.9,17,4,3,2.8,0,0,2,2,0,0,4,1,6542,1,55.79748299999999,37.495096,8,улица Маршала Рыбалко,2к4,2011,2,18,False,True,True,0,True,0,0.10533320194642522,-0.9312623029704028,72.865
22986,22994,2,58.0,9.0,35.0,4,2,1,2.8,0,1,0,1,1,0,1,2,3817,0,55.685782,37.543192,6,Ленинский проспект,77к1,1958,0,9,False,True,False,3,True,0,0.06092128818345424,-2.500800402631276,29.0
12036,12040,3,56.17,10.7,28.2,13,2,3,2.95,1,1,1,1,0,0,4,1,767,1,55.699543000000006,37.462415,7,Аминьевское шоссе,4А,2022,7,30,False,True,True,0,False,4,0.12233367423287513,-1.8615921657328949,28.085
22048,22056,4,85.0,16.9,42.8,12,2,3,2.5,1,0,2,2,1,0,3,1,3889,0,55.673549,37.567743,6,Новочеремушкинская улица,44К2,2002,2,18,True,True,True,3,False,1,0.06221169052533445,-2.9496217120193493,42.5
22283,22291,3,67.3,19.7,32.3,2,2,3,2.7,0,2,2,2,0,1,4,1,6703,1,55.52117,37.354734,11,Новые Ватутинки центральный мкр,к2/3,2022,2,16,True,True,True,3,False,1,0.3100490038822408,-2.3301222367415053,33.65
21703,21711,4,69.2,10.7,44.0,12,3,3,2.64,0,0,1,1,1,1,1,1,6243,0,55.869526,37.699777000000005,2,Федоскинская улица,9К1,1972,3,14,False,True,False,3,True,0,0.18066455930480832,0.7276602210514246,23.066666666666666
2748,2749,4,140.0,10.7,30.9,3,3,3,2.8,0,0,1,1,0,0,0,1,7926,0,55.693591000000005,37.532439,7,Ломоносовский проспект,25к1,2010,2,19,True,True,True,3,True,4,0.06251842971895431,-2.2866163338637353,46.666666666666664
23076,23084,4,162.0,25.0,30.9,47,3,3,2.8,0,2,1,1,1,0,3,2,8776,0,55.723257,37.52766,7,Мосфильмовская улица,8,2011,2,53,True,True,True,0,True,0,0.05318029485201835,-1.7860848254754456,54.0
3517,3520,4,203.5,10.7,30.9,2,4,3,2.8,0,0,2,2,1,0,4,1,5718,1,55.752409,37.64039,0,улица Солянка,7,2020,5,4,True,False,False,3,False,4,0.06332783458502356,1.2860260325491382,50.875
3322,3325,4,98.2,10.7,30.9,2,2,3,3.2,0,0,2,2,0,0,4,1,7529,1,55.747287,37.622774,0,Софийская набережная,34С4,2018,2,8,True,True,True,1,True,0,0.044982350622900916,1.2852864399192214,49.1
9961,9965,4,45.8,26.7,12.4,17,1,3,2.8,1,0,2,2,0,0,4,1,5782,1,55.707426,37.934031,4,Квартал Некрасовка ЖК,к8,2020,2,23,False,True,True,1,False,4,0.35545996637131877,1.6473688277911058,45.8
20985,20992,1,73.0,10.0,44.4,1,3,1,2.64,0,1,1,1,0,0,1,2,1398,0,55.65588399999999,37.756676,4,Мячковский бульвар,9,1997,3,17,False,True,True,1,True,0,0.19377941958120887,1.9892047165769755,24.333333333333332
6501,6504,4,50.0,20.0,80.0,20,2,3,3.1,2,0,2,2,0,0,0,2,7434,0,55.858963,37.37297,8,Муравская улица,42к3,2019,2,24,True,True,True,0,True,0,0.24116982223435537,-1.0290983840334984,25.0
3312,3315,4,87.0,21.0,61.0,11,2,3,3.2,0,2,0,1,0,0,0,1,5893,0,55.770811,37.591189,0,2-я Брестская улица,6,2019,2,12,True,True,True,2,True,4,0.037999413809754995,0.30956710787970626,43.5
5933,5936,3,68.4,22.2,27.2,13,2,3,3.2,1,1,1,0,0,1,4,1,1135,1,55.751016,37.686815,4,улица Золоторожский Вал,11С20,2023,2,20,False,True,True,0,False,4,0.10844929506103919,1.419008624927375,34.2
4672,4675,0,150.4,20.0,90.0,2,3,3,3.1,3,0,1,0,0,1,3,1,9218,0,55.680859,37.530112,6,улица Крупской,1,2010,0,8,False,True,True,0,True,0,0.07307754091332803,-2.3974094855463246,50.13333333333333
2511,2511,4,131.0,12.0,91.0,12,6,3,2.8,0,0,1,0,0,0,1,2,7788,0,55.742524,37.404169,7,Оршанская улица,9,1995,3,14,True,True,False,3,True,0,0.17562166656582553,-1.5257631303342851,21.833333333333332
14149,14154,4,79.8,10.7,30.9,6,3,3,2.8,0,0,2,2,0,0,4,1,44,1,55.71016899999999,37.647217,5,Павелецкая набережная,8,2021,7,16,False,True,True,0,True,4,0.07188949648052294,1.91780846907623,26.599999999999998
19331,19338,3,85.93,15.4,48.2,6,2,3,2.85,0,0,2,2,0,0,4,1,6555,1,55.883202,37.683015000000005,2,Тайнинская улица,9к4,2020,0,24,True,True,True,0,False,0,0.1810229186377298,0.6079811584649509,42.965
14743,14748,4,52.1,8.8,30.4,3,2,3,2.64,0,1,1,0,0,0,1,1,6635,0,55.849812,37.43622,8,бульвар Яна Райниса,1,1988,3,12,False,True,False,1,True,0,0.1839324081402356,-0.8940174228987114,26.05
960,960,4,37.9,10.7,30.9,15,1,3,2.8,0,0,2,2,0,0,4,0,879,0,55.844834,37.347494,8,улица Барышиха,21,2013,7,17,False,True,True,3,False,4,0.2569565104553119,-1.127489344124429,37.9
7725,7728,4,82.0,11.0,47.0,10,3,3,2.64,0,1,1,1,1,1,1,1,5535,0,55.64043100000001,37.358166,7,Боровское шоссе,39,1988,3,17,False,True,True,1,False,0,0.2406444896161669,-1.9729425464630141,27.333333333333332
18907,18914,4,29.07,8.2,30.3,4,1,1,2.7,0,1,0,1,2,0,0,2,3029,1,55.790195,37.472261,8,улица Берзарина,30К3,2021,2,25,True,True,True,0,False,0,0.12088501704665124,-1.0930803777799893,29.07
17403,17409,4,120.0,18.0,65.0,6,3,3,2.8,0,0,1,0,0,0,3,2,3012,0,55.764014,37.64913,0,Фурманный переулок,8С2,2007,2,8,False,True,True,0,True,0,0.0754771427973459,1.170739531716694,40.0
4109,4112,1,43.8,5.4,24.5,19,2,1,2.8,1,0,2,2,0,0,4,2,8761,1,55.812727,37.738863,3,Тюменский проезд,3к2,2020,7,31,False,True,True,3,False,4,0.1773745216183836,1.114793659152126,21.9
12517,12521,4,38.0,8.3,18.7,15,1,3,2.8,0,1,2,2,1,0,1,1,5552,0,55.587194,37.596687,5,Варшавское шоссе,154К2,1982,3,16,True,True,False,3,True,0,0.14840933719044777,3.026288076278203,38.0
12728,12732,1,50.1,10.7,30.9,11,2,1,2.64,0,1,1,0,2,0,1,2,4827,0,55.799674,37.620186,2,улица 2-я Марьиной рощи,22,1977,4,16,False,True,True,1,True,0,0.07667137479281484,0.5576404002595352,25.05
17697,17703,4,56.0,7.0,36.0,3,3,1,2.64,0,1,1,0,1,0,1,1,5156,0,55.749815000000005,37.821427,3,Зеленый проспект,64,1967,0,9,False,True,False,1,True,0,0.2422914536624841,1.5080326010410008,18.666666666666668
22634,22642,1,35.0,8.0,20.0,1,1,3,2.7,1,0,1,0,0,0,1,1,3645,0,55.797336,37.564994,1,Мирской переулок,16К2,1961,3,5,True,False,False,3,False,0,0.06439928623824617,-0.22899582626506662,35.0
3777,3780,3,92.19,20.5,50.7,2,3,3,2.9,2,0,1,1,0,0,4,1,9665,1,55.795813,37.76583,3,Измайловский проезд,5Ак1,2021,2,9,False,True,True,1,True,0,0.19601468777832803,1.2532919320937548,30.73
18541,18547,3,32.9,10.7,24.9,3,1,3,3.1,1,0,2,2,0,0,4,1,1093,1,55.707852,37.606685,5,4-й Верхний Михайловский проезд,1,2021,2,13,False,True,True,0,False,4,0.03807000905793503,2.350501297457071,32.9
2429,2429,4,205.0,10.7,30.9,14,6,3,2.8,0,0,1,1,0,0,3,1,6836,0,55.72746,37.479977000000005,7,Давыдковская улица,3,2004,7,43,True,True,True,0,True,4,0.09989239862037283,-1.6425135703364317,34.166666666666664
18113,18119,3,40.37,10.4,17.9,11,1,3,2.7,0,1,2,2,0,1,4,1,6703,1,55.52117,37.354734,11,Новые Ватутинки центральный мкр,к2/3,2022,2,16,True,True,True,3,False,1,0.3100490038822408,-2.3301222367415053,40.37
11168,11172,3,52.8,11.3,27.8,30,2,3,2.65,1,0,0,1,0,0,4,1,9704,1,55.882151,37.638108,2,Полярная улица,27к1,2021,2,33,False,True,True,1,True,0,0.1587064424472247,0.37747668867300005,26.4
11062,11066,1,53.2,9.8,28.0,2,2,3,2.8,0,1,1,0,1,0,1,1,6688,0,55.972353000000005,37.169403,9,мкр. 20-й,к2034,2008,2,17,False,True,True,3,False,0,0.47412015686917863,-1.0455527033793774,26.6
15758,15763,4,56.0,14.0,34.0,15,2,3,2.8,1,0,1,0,0,1,3,1,1255,0,55.774305000000005,37.642132,3,переулок Докучаев,2,2015,2,16,False,True,False,3,False,4,0.07405229012375643,1.00518280007494,28.0
535,535,4,240.0,20.0,80.0,20,6,3,3.1,2,0,2,2,0,0,0,2,1628,0,55.793348,37.448581,8,Живописная улица,21А,2011,2,32,True,True,True,0,False,0,0.14359148005588182,-1.149429097062255,40.0
7733,7736,4,63.04,11.9,32.6,9,2,1,2.9,0,1,0,1,0,1,0,1,3428,0,55.71788299999999,37.426573,7,Рябиновая улица,3к4,2019,2,23,True,True,True,0,True,0,0.1539518764363097,-1.679713487100847,31.52
8237,8240,1,61.0,12.0,49.0,4,2,1,2.8,0,1,2,2,1,0,4,1,7928,0,55.420014,37.410349,10,пос. Щапово,58,2014,0,9,True,True,True,1,True,0,0.3572474853878177,-2.647992546165071,30.5
15409,15414,4,222.0,36.0,111.0,12,5,3,2.8,3,0,2,2,0,0,3,1,6451,0,55.798480000000005,37.520671,1,Чапаевский переулок,3,2006,5,57,True,True,True,0,True,0,0.08690504108606888,-0.7453514694920557,44.4
5919,5922,3,79.2,16.7,40.1,22,3,3,2.8,2,0,2,2,0,0,4,1,6796,1,55.719896,37.692663,4,Метрополия ЖК,6,2021,7,30,False,True,True,0,False,4,0.11400492282470821,1.7002915569365993,26.400000000000002
1963,1963,1,58.0,6.0,42.9,12,3,1,2.64,1,0,1,0,0,1,1,2,3055,0,55.818301,37.62678,2,улица Цандера,7,1972,3,12,False,True,False,1,True,0,0.09606054650644345,0.5132570470220791,19.333333333333332
15350,15355,1,49.4,6.0,34.6,7,3,2,2.8,0,1,1,0,1,0,1,1,1338,0,55.896251,37.59975,2,Мурановская улица,19Б,1974,3,9,False,True,False,3,True,0,0.16288272954158958,0.1239483015114972,16.466666666666665
3023,3025,4,37.91,10.0,27.0,11,2,3,3.0,1,0,0,1,0,0,3,1,5893,0,55.770811,37.591189,0,2-я Брестская улица,6,2019,2,12,True,True,True,2,True,4,0.037999413809754995,0.30956710787970626,18.955
17034,17040,2,60.0,6.5,45.0,3,3,3,2.8,0,1,1,0,0,1,1,1,1667,0,55.694307,37.823951,4,Ферганский проезд,7К3,1969,2,9,False,True,False,3,True,0,0.24764129571240967,1.7343031628392072,20.0
18276,18282,2,54.1,9.1,32.1,11,2,1,2.64,0,1,1,0,0,1,2,2,8308,0,55.84629,37.40327,8,Светлогорский проезд,9,2004,3,16,False,True,True,1,True,0,0.20872801383608006,-1.0062735821057696,27.05
17941,17947,4,38.0,6.0,29.0,7,2,1,2.7,0,1,0,1,0,0,1,2,9013,0,55.648677,37.532771,6,Профсоюзная улица,73,1973,2,15,False,True,True,1,False,0,0.0978773205615876,-2.6425618300435945,19.0
17063,17069,4,38.0,8.5,19.0,2,1,3,2.64,1,0,0,1,0,0,1,2,2528,0,55.637337,37.696678000000006,5,Каширское шоссе,57К2,1988,3,17,False,True,True,1,True,0,0.15220995725537462,2.2641536221962064,38.0
7023,7026,1,71.0,8.5,36.0,9,2,1,2.75,0,1,1,0,0,1,2,2,2254,0,55.85710400000001,37.496426,1,улица Ляпидевского,12,1975,3,17,False,True,True,3,True,0,0.14806372228179956,-0.5965960895496479,35.5
1916,1916,3,54.75,22.9,23.8,2,2,3,2.65,0,1,0,1,0,0,4,1,1656,1,55.802325,37.599858000000005,2,Складочная улица,6к6,2021,2,14,False,True,True,1,False,4,0.07066916769024198,0.29055199348972177,27.375
20219,20226,3,33.7,10.7,11.5,9,1,3,2.65,1,0,1,0,0,0,4,1,400,1,55.617017,37.413718,11,Саларьево Парк ЖК,29,2021,3,16,False,True,True,1,False,4,0.20334942381514928,-2.1874631775168227,33.7
13099,13103,1,53.7,10.7,30.9,13,2,3,2.8,0,1,2,2,1,0,1,1,2338,0,55.643678,37.338313,7,Лукинская улица,9,1990,3,17,True,True,True,3,False,0,0.25786733966541087,-1.931210089275337,26.85
10602,10606,3,80.1,10.7,30.9,26,2,3,2.8,0,0,2,2,0,0,4,1,2640,1,55.734385,37.525342,7,Поклонная улица,вл9,2022,2,32,False,True,False,1,False,4,0.05427111687405752,-1.5750871651827465,40.05
10172,10176,2,30.0,6.0,18.0,8,1,3,2.8,1,0,1,0,1,0,1,1,3854,0,55.734562,37.747541,4,3-я Карачаровская улица,7,1974,0,9,False,True,False,3,False,0,0.1679283920192241,1.5711290154929294,30.0
3302,3305,4,135.9,15.0,91.0,2,1,3,2.8,2,0,1,0,0,0,0,1,7755,0,55.769575,37.591611,0,Большая Садовая улица,5к1,2016,2,13,True,True,True,0,True,4,0.036958926855333446,0.33063213840360883,135.9
10942,10946,3,52.62,10.0,25.9,9,2,3,2.72,0,2,1,1,0,0,4,1,1936,1,55.669986,37.773134000000006,4,Цимлянская улица,3к2.1,2020,2,9,True,True,True,1,False,4,0.20402892911896878,1.8931268923106446,26.31
21903,21911,3,56.2,19.6,22.1,24,2,3,2.68,0,2,1,0,0,0,4,1,8040,1,55.660749,37.732,4,Люблинская улица,72к23,2021,3,25,False,True,True,1,False,0,0.16934734735299356,2.022164808738916,28.1
21581,21589,4,62.0,12.0,32.0,3,2,3,2.8,0,1,0,1,2,0,2,2,6813,0,55.860469,37.556181,1,Дмитровское шоссе,74К1,2014,3,15,True,True,True,1,True,0,0.128013859189943,-0.18407749455796696,31.0
9932,9936,1,38.0,8.0,19.0,5,1,3,2.8,0,0,1,0,0,0,2,1,434,0,55.704316000000006,37.938918,4,улица Липчанского,8,2016,3,17,True,True,True,1,True,0,0.36058086645392007,1.654931815643981,38.0
21767,21775,2,43.2,6.0,28.7,4,2,1,2.64,1,0,1,0,1,0,1,2,6419,0,55.804299,37.716252,3,Просторная улица,6,1971,0,9,False,True,False,3,True,0,0.1533811627471021,1.0992095262719177,21.6
3502,3505,4,232.0,10.7,30.9,6,5,2,2.8,4,0,2,2,0,0,4,1,8067,0,55.721863,37.568875,0,улица Ефремова,19к4,2015,7,7,True,True,True,0,True,0,0.016672824574324056,-2.4418522858246368,46.4
22566,22574,4,119.5,33.8,41.9,2,3,3,2.8,2,0,2,2,0,0,4,1,1352,1,55.78686999999999,37.494979,8,3-я Хорошевская улица,7к2,2019,2,22,False,True,True,1,False,0,0.09946423721261204,-1.0176865299016558,39.833333333333336
22496,22504,4,95.0,10.7,45.0,9,3,3,3.0,0,2,1,0,1,0,1,1,3402,0,55.71876,37.613943,5,Хавская улица,3,1938,7,10,False,True,False,1,False,4,0.03781596424414682,2.003518052859501,31.666666666666668
8686,8690,2,35.0,8.2,19.2,3,1,3,2.8,1,0,0,1,1,0,2,1,3293,0,55.78898100000001,37.784686,3,3-я Парковая улица,4,1959,0,5,True,False,False,3,False,0,0.21215664598797723,1.311665459922064,35.0
22887,22895,4,114.8,16.0,72.0,8,3,3,2.8,2,0,0,1,0,0,3,1,2000,0,55.710839,37.605068,5,улица Орджоникидзе,1,2017,2,18,True,True,True,0,True,0,0.034834050399549586,2.322155842467087,38.266666666666666
18750,18756,0,58.0,12.0,36.0,2,2,1,2.7,0,1,1,0,0,1,2,1,5192,0,55.527581000000005,37.514077,6,проезд Чечерский,126к2,2012,7,17,False,True,True,1,True,4,0.2171616489895024,-2.83503072715925,29.0
15968,15974,4,61.6,12.0,32.0,12,2,1,3.0,1,0,1,0,0,1,0,1,7641,0,55.89555,37.574804,2,Абрамцевская улица,10,2019,7,12,False,True,True,0,True,4,0.1610039563169826,-0.02987089607223035,30.8
3914,3917,1,30.0,6.0,20.0,5,1,3,2.8,1,0,1,0,1,0,2,2,9716,0,55.817198,37.727418,3,Ивантеевская улица,15К2,1961,0,5,True,False,False,1,False,0,0.16931009829362212,1.0612916786194102,30.0
12191,12195,2,45.0,6.0,30.0,13,2,1,2.8,0,1,1,0,1,0,1,1,428,0,55.677945,37.756425,4,Краснодарская улица,33,1971,4,14,True,False,False,3,False,0,0.18567291843084976,1.8809758370907728,22.5
22093,22101,3,43.8,9.8,25.8,27,1,3,3.1,1,0,2,2,0,0,4,1,3883,1,55.656986,37.559173,6,Херсонская улица,43к7,2019,2,32,False,True,True,1,False,4,0.08027754894360635,-2.884146323615714,43.8
19943,19950,4,81.0,10.7,30.9,15,3,1,2.8,1,0,0,1,0,0,1,2,268,0,55.703185,37.491548,7,Мосфильмовская улица,88к4с1,2015,2,21,True,True,True,0,False,0,0.09350616021742818,-1.9136311139492532,27.0
19482,19489,3,80.0,13.0,45.5,29,3,3,2.8,2,0,0,1,0,0,4,1,6796,1,55.719896,37.692663,4,Метрополия ЖК,6,2021,7,30,False,True,True,0,False,4,0.11400492282470821,1.7002915569365993,26.666666666666668
19914,19921,1,33.0,6.0,19.0,5,1,3,2.8,0,1,0,1,0,0,2,1,5788,0,55.60374100000001,37.547567,6,Новоясеневский проспект,19К1,1978,2,9,True,True,True,1,True,0,0.1347430003072035,-2.9014638917768565,33.0
18166,18172,3,59.1,20.8,23.1,2,2,3,2.65,0,2,0,1,0,0,4,1,8317,1,55.617017,37.413718,11,Саларьево Парк ЖК,33,2022,3,16,False,True,True,1,False,4,0.20334942381514928,-2.1874631775168227,29.55
696,696,2,59.0,10.2,35.0,11,2,1,2.64,0,1,1,0,1,0,1,2,4914,0,55.842479,37.421012,8,проезд Донелайтиса,20К1,1989,3,22,False,True,True,3,True,0,0.19180244946965502,-0.9735648612630595,29.5
1033,1033,4,40.0,10.7,30.9,1,1,3,2.8,0,0,2,2,0,0,4,0,7635,2,55.78567,37.476196,8,улица Маршала Тухачевского,24К3,2013,7,12,False,False,False,3,False,4,0.11533133538943623,-1.1122375745861537,40.0
3008,3010,4,58.09,17.7,26.8,4,2,1,2.8,1,0,1,0,0,0,0,1,4574,0,55.75461800000001,37.524058,0,Шмитовский проезд,39к1,2019,2,55,True,True,True,0,True,0,0.05904507418409132,-1.2252332582556094,29.045
8367,8371,3,81.9,31.2,27.9,17,2,3,2.8,1,1,2,2,0,1,4,1,8076,1,55.818574,37.752032,3,Тагильская улица,1А,2021,7,24,False,True,True,1,False,4,0.19177350093438314,1.117659459709745,40.95
2305,2305,1,90.5,9.0,58.0,12,4,3,2.8,0,1,2,2,0,1,0,1,7396,0,55.840851,37.605436,2,В мкр,50,2002,2,16,True,True,True,3,False,0,0.10932669141640251,0.2384572632437841,22.625
5592,5595,4,60.6,12.5,36.6,2,2,1,2.7,0,1,1,0,0,0,0,1,6034,0,55.70298199999999,37.948844,4,улица Лавриненко,13к3,2020,3,17,True,True,True,1,False,4,0.3705841903347088,1.6562679154279591,30.3
10801,10805,3,58.0,20.7,23.9,9,2,3,2.65,0,2,0,1,0,0,4,1,4162,1,55.59516,37.741109,12,23-й км,5к1,2021,3,9,False,True,True,1,False,1,0.21337661199479122,2.2830961785656085,29.0
17173,17179,1,30.0,6.1,17.6,1,1,3,2.65,1,0,1,0,0,0,4,1,379,0,55.688974,37.587587,6,улица Винокурова,7/5К3,1960,4,5,True,False,False,3,False,0,0.04633522908801346,2.968629604613292,30.0
4788,4791,1,38.0,10.0,19.5,8,1,3,2.8,0,0,2,2,0,0,4,0,6364,0,55.565137,37.576403000000006,6,улица Грина,3К2,1988,3,17,False,True,False,3,False,0,0.16951125691059823,-3.122656984377642,38.0
20844,20851,4,76.2,10.0,45.0,6,3,1,2.74,0,1,1,1,0,2,2,1,2360,0,55.713365,37.88757,3,Святоозерская улица,14,2005,3,12,False,True,True,1,True,0,0.3086898669674741,1.6396994438013932,25.400000000000002
12490,12494,4,418.0,24.1,225.9,16,6,1,3.0,4,1,1,0,0,0,3,1,2304,0,55.695195,37.530229,7,Ломоносовский проспект,25к2,2010,2,17,True,True,True,0,True,3,0.06318943081501835,-2.2444989110464397,69.66666666666667
1355,1355,3,39.9,12.5,16.6,4,1,3,2.8,1,0,1,0,1,1,4,1,6512,1,55.854987,37.559155,1,Дмитровское шоссе,71к1,2021,2,24,False,True,True,1,True,0,0.12209521723868048,-0.16834869316506043,39.9
15272,15277,4,62.8,20.5,26.1,10,2,3,0.0,0,2,0,1,0,0,4,1,4852,1,55.80589200000001,37.716432,3,Просторная улица,7к2,2022,2,32,False,True,True,1,False,4,0.15427101282930328,1.0905405978346538,31.4
1060,1060,4,43.0,10.7,30.9,6,2,3,2.8,0,0,2,2,0,0,4,0,1589,0,55.796385,37.461077,8,улица Рогова,12,1965,0,9,False,True,False,3,False,0,0.1336632753348429,-1.0904233524563285,21.5
17855,17861,4,33.1,8.0,18.0,9,1,3,2.65,1,0,1,0,0,0,1,1,5114,0,55.670102,37.651672,5,улица Академика Миллионщикова,13К2,1969,3,9,False,True,False,3,False,0,0.09672048307763902,2.301017159337554,33.1
2325,2325,0,53.0,10.4,27.8,2,2,1,2.8,1,0,1,0,0,0,0,1,5815,0,55.494869,36.920013,10,улица Генерала Донскова,8,2017,3,3,True,False,False,1,False,2,0.7018199019381341,-1.9194260059472052,26.5
1729,1729,3,20.49,2.6,10.6,6,1,3,3.0,1,0,1,0,0,0,4,1,4035,1,55.85718000000001,37.627687,2,Сельскохозяйственная улица,вл35,2020,2,11,False,True,True,1,False,0,0.1316534181288076,0.37380320163730335,20.49
15905,15911,3,59.7,20.7,23.4,2,2,3,2.8,0,2,0,1,0,0,4,1,856,1,55.860423,37.541063,1,Ильменский проезд,17к1,2021,2,23,False,True,True,1,False,4,0.13157888987388963,-0.29733921578367,29.85
15674,15679,4,53.0,8.0,38.0,30,2,2,3.1,0,2,1,1,1,0,2,1,4328,0,55.774026,37.467221,8,улица Саляма Адиля,2к1,2011,2,40,False,True,True,1,True,0,0.11910027922259894,-1.2335583154944612,26.5
9770,9774,1,34.7,6.4,19.8,4,1,3,2.8,0,1,2,2,1,0,1,1,661,0,55.608292000000006,37.707063,5,Ореховый бульвар,10К1,1975,3,9,True,True,True,3,True,0,0.17944866940681517,2.3517633919853176,34.7
19514,19521,4,90.0,12.0,53.8,9,3,3,2.75,0,1,1,1,0,1,4,1,2116,0,55.704418,37.77749,4,Волгоградский проспект,145К2,2004,2,15,False,True,True,0,False,0,0.20016865542400245,1.7222467510993171,30.0
4618,4621,3,83.0,10.7,30.9,12,2,3,2.8,0,0,2,2,0,0,4,1,2434,1,55.662136,37.512559,6,улица Эльдара Рязанова,2,2019,7,17,False,True,True,0,False,4,0.09874111990699645,-2.3950771782065803,41.5
20337,20344,3,113.1,10.7,30.9,61,3,3,2.8,0,0,0,1,1,0,4,1,1047,1,55.751143000000006,37.533733000000005,0,1-й Красногвардейский проезд,вл17-18,2020,2,63,True,True,True,0,True,0,0.04876493897152008,-1.225077324982474,37.699999999999996
8789,8793,1,52.6,8.8,31.5,2,2,3,2.6,0,1,1,0,0,1,1,2,7401,0,55.787766000000005,37.73359,3,Мироновская улица,24,1973,0,14,False,True,False,3,True,0,0.1628918608748801,1.2384322650084996,26.3
11263,11267,2,39.4,8.3,19.1,13,1,3,2.64,1,0,1,0,1,0,1,1,7002,0,55.864242,37.620034,2,улица Мусоргского,5К3,1994,3,17,False,True,True,1,True,0,0.13578035134030703,0.3022792091094267,39.4
10845,10849,3,84.9,14.3,43.8,3,3,3,2.65,0,2,1,1,0,0,4,1,5033,1,55.544886,37.478459,11,Бунинские Луга ЖК,к2.2/2,2021,3,9,False,True,True,1,False,4,0.2150121763430002,-2.6517859847154686,28.3
267,267,3,62.0,25.0,21.4,6,2,3,2.89,1,1,1,0,0,1,4,1,654,1,55.567774,37.496183,11,Сосенское поселение,бульвар Скандинавский,2021,2,16,False,True,True,0,False,4,0.18654055131976063,-2.677908204426459,31.0
8832,8836,1,23.6,6.0,12.0,15,1,3,2.74,1,0,2,2,0,0,0,1,1748,0,55.968,37.150583000000005,9,проспект Георгиевский,37к1,2018,2,17,True,True,True,1,True,0,0.4883990500529111,-1.0725892590292156,23.6
16897,16903,1,165.0,20.0,120.0,3,4,3,2.8,0,2,2,2,0,0,2,1,4399,0,55.801536,37.636715,2,проспект Мира,102к2,2015,7,7,False,True,True,3,False,4,0.08796998647152046,0.7064166301359203,41.25
10206,10210,1,31.5,6.0,19.0,7,1,3,2.8,1,0,1,0,1,0,4,1,549,0,55.710783,37.768624,4,Зеленодольская улица,32К2,1965,4,9,False,True,False,3,True,4,0.19050827731802802,1.696237024501687,31.5
16938,16944,1,38.5,8.9,17.1,2,1,3,3.2,1,0,1,0,1,0,4,1,2826,0,55.723607,37.824032,3,Вешняковская улица,18к1,2019,3,13,False,True,True,0,True,1,0.24466727174578812,1.6158149675201905,38.5
20919,20926,4,63.6,13.0,33.7,17,2,3,2.75,0,1,2,2,2,0,0,2,3242,0,55.702551,37.933303,4,улица Недорубова,11,2014,3,17,False,True,True,1,True,0,0.3551410576774458,1.6612127986099279,31.8
5370,5373,2,31.6,7.7,16.5,6,1,3,2.64,1,0,1,0,1,0,1,1,2554,0,55.62273100000001,37.589994,5,Днепропетровская улица,19К2,1970,2,9,False,True,False,3,True,0,0.11236745218541215,3.0490729075839296,31.6
12086,12090,1,47.1,10.0,24.0,5,1,3,3.0,1,0,1,0,1,0,4,1,4135,0,55.467719,37.288007,10,бульвар Троицкий,1,2017,7,7,True,True,True,3,True,0,0.3953085398772169,-2.311985979080265,47.1
6516,6519,4,78.0,20.0,80.0,1,3,3,3.1,2,0,2,2,0,0,0,2,8807,0,55.841372,37.3659,8,Митинская улица,17К2,2011,2,32,False,True,True,0,False,0,0.23889229269161416,-1.1075312728514322,26.0
20811,20818,4,42.0,6.0,26.0,5,2,1,2.5,0,1,1,1,1,0,2,1,7470,0,55.75525699999999,37.806785,3,Федеративный проспект,18К1,1961,0,5,True,False,False,3,False,0,0.22810801224016322,1.4801927711610239,21.0
23250,23258,3,106.7,31.1,35.5,5,3,3,3.2,2,0,1,0,0,0,4,1,7529,1,55.747287,37.622774,0,Софийская набережная,34С4,2018,2,8,True,True,True,1,True,0,0.044982350622900916,1.2852864399192214,35.56666666666667
10195,10199,1,37.6,8.0,19.0,6,1,3,2.8,1,0,1,0,1,0,1,1,7679,0,55.70461,37.915732,4,Рождественская улица,19к2,2010,3,17,False,True,True,1,True,0,0.3374562365382807,1.659837670627868,37.6
5743,5746,3,39.71,15.7,14.1,2,1,3,2.8,1,0,1,0,0,0,4,1,4571,1,55.666858,37.759866,4,улица Верхние Поля,32,2021,2,22,False,True,True,0,False,4,0.19256864147325797,1.9303685464568852,39.71
11852,11856,3,56.5,17.5,26.2,29,2,3,2.8,1,1,1,1,0,0,4,1,5435,1,55.719896,37.692663,4,Метрополия ЖК,2,2021,4,30,False,True,True,0,True,0,0.11400492282470821,1.7002915569365993,28.25
14602,14607,3,67.2,10.7,30.9,24,2,3,2.8,0,0,1,1,0,0,4,1,679,1,55.808938,37.578648,1,Дмитровское шоссе,1Б,2021,3,58,False,True,True,0,True,0,0.07432639184875657,-0.012978490289029865,33.6
2054,2054,3,83.39,11.3,45.8,11,3,3,2.8,1,1,2,2,2,0,4,1,1274,1,55.847973,37.628882,2,проезд Серебрякова,2Ак3,2020,7,24,False,True,True,0,False,4,0.12359958759154743,0.410012652033734,27.796666666666667
7930,7933,4,61.18,10.5,32.4,4,2,3,2.8,0,1,1,0,0,1,4,1,936,1,55.715824,37.388879,7,Барвихинская улица,6,2020,2,10,False,True,True,0,False,4,0.19165730413484097,-1.669013916023061,30.59
15120,15125,4,106.3,10.7,30.9,7,3,3,2.8,0,0,2,2,0,0,4,1,44,1,55.71016899999999,37.647217,5,Павелецкая набережная,8,2021,7,16,False,True,True,0,True,4,0.07188949648052294,1.91780846907623,35.43333333333333
2897,2899,4,52.0,11.4,20.2,3,1,3,2.8,0,1,1,0,0,1,4,1,936,1,55.715824,37.388879,7,Барвихинская улица,6,2020,2,10,False,True,True,0,False,4,0.19165730413484097,-1.669013916023061,52.0
14087,14092,4,30.0,6.0,17.0,7,1,3,3.0,0,1,2,2,0,1,3,1,2730,0,55.680686,37.696292,5,Коломенская улица,12к1,2013,7,17,False,True,True,0,False,1,0.12854075122703787,2.003768095443804,30.0
1624,1624,1,141.0,20.0,84.0,4,4,3,2.8,2,0,1,1,0,2,0,2,9449,0,55.83993100000001,37.546372,1,Большая Академическая улица,63,2006,0,18,False,True,True,3,False,0,0.11043457082954242,-0.3057393215616126,35.25
10346,10350,3,41.1,12.5,18.5,4,1,3,2.85,1,0,1,0,1,0,4,1,2679,1,55.751725,37.707009,4,Красноказарменная улица,14Ак4,2020,2,12,False,True,True,1,False,4,0.12853984713356537,1.4373121124251433,41.1
15600,15605,4,61.5,32.1,14.1,28,1,3,3.2,1,0,1,0,0,0,4,1,9258,1,55.762789,37.508984000000005,8,Шелепихинская набережная,34к2,2018,2,36,True,True,True,0,False,0,0.07603955722605957,-1.1912706289770878,61.5
10846,10850,0,58.0,9.9,34.2,3,2,1,2.9,1,1,0,1,0,1,2,1,7628,0,55.56835400000001,37.495761,11,бульвар Скандинавский,1к1,2019,5,15,False,True,True,1,False,4,0.18621162015545667,-2.674488194658188,29.0
3928,3931,1,44.8,6.0,30.9,3,2,3,2.8,0,1,2,2,1,0,1,1,844,0,55.761193000000006,37.780832,3,2-я Владимирская улица,9Б,1962,3,5,True,True,True,0,False,0,0.20296669094201264,1.439485834662913,22.4
17336,17342,0,51.0,8.0,30.0,1,2,1,2.8,0,1,2,2,0,0,0,2,2691,0,55.491804,37.308651,10,площадь Фабричная,5,1969,0,2,True,False,False,3,False,0,0.36383893753858787,-2.301463116568361,25.5
7878,7881,1,201.0,10.7,153.0,14,3,1,2.8,2,1,1,1,0,1,3,2,7263,0,55.724271,37.44691,7,Можайское шоссе,2,2000,2,26,True,True,True,0,True,1,0.1331053804556966,-1.6486092346976102,67.0
3414,3417,4,140.7,10.7,30.9,3,4,3,2.8,0,0,2,2,0,0,4,0,9216,1,55.732514,37.619549,0,улица Большая Полянка,44/2,2019,2,7,True,True,True,0,True,1,0.039991760717368645,1.6234281558856234,35.175
6921,6924,1,225.0,20.0,30.9,4,5,3,2.8,3,0,0,1,1,0,3,2,6451,0,55.798480000000005,37.520671,1,Чапаевский переулок,3,2006,5,57,True,True,True,0,True,0,0.08690504108606888,-0.7453514694920557,45.0
22951,22959,4,58.0,11.0,30.0,15,2,1,2.78,0,1,1,0,0,1,2,2,6804,0,55.64762,37.602768,6,Симферопольский бульвар,24К5,2005,3,17,True,True,True,1,True,0,0.09002666696229086,2.881463026232197,29.0
1545,1545,0,52.0,10.7,30.9,6,1,3,2.8,0,0,2,2,1,1,0,1,5404,0,55.795444,37.526896,1,улица Викторенко,вл11,2018,2,15,True,True,True,0,False,1,0.08049136652994723,-0.714096670612682,52.0
19142,19149,4,300.0,25.0,200.0,23,6,1,2.8,4,0,1,1,0,3,3,1,5591,0,55.799937,37.505903,1,улица Алабяна,13к1,2007,2,23,False,True,True,0,True,0,0.09848703823338177,-0.8456757732886103,50.0
11454,11458,0,37.7,7.2,19.1,5,1,3,2.74,1,0,0,1,0,1,1,2,961,0,55.69749300000001,37.857602,4,Лермонтовский проспект,16,2008,3,17,False,True,False,3,True,0,0.28045739912369466,1.7035585644702063,37.7
4939,4942,2,59.7,6.0,43.1,8,3,0,2.8,0,1,1,0,0,2,1,1,630,0,55.598375,37.534281,6,Голубинская улица,25К2,1977,3,9,False,True,False,1,True,4,0.1435864707138285,-2.8203883175552726,19.900000000000002
13895,13899,4,33.1,15.0,12.0,10,1,3,2.8,1,0,2,2,0,1,4,2,4306,1,55.649195,37.384828000000006,7,Производственная улица,7,1996,0,23,False,True,True,0,False,0,0.21269253273904795,-1.9840880584641059,33.1
9788,9792,1,35.0,9.0,19.2,3,1,3,2.64,1,0,1,0,1,0,4,1,1963,0,55.66469,37.611365,5,Нахимовский проспект,4,1973,0,9,False,True,False,3,False,0,0.0767992220963609,2.71535647697554,35.0
3672,3675,1,75.0,13.0,48.0,5,3,1,2.8,1,0,1,0,1,0,2,1,7728,0,55.775667000000006,37.732925,3,улица Бориса Жигуленкова,7,2012,2,16,False,True,True,0,True,0,0.1587126899310378,1.309184369726122,25.0
12483,12487,3,68.3,11.3,28.0,9,2,3,2.65,0,2,0,1,0,0,4,1,4162,1,55.59516,37.741109,12,23-й км,5к1,2021,3,9,False,True,True,1,False,1,0.21337661199479122,2.2830961785656085,34.15
19214,19221,4,51.6,8.1,29.4,2,2,1,2.8,0,1,1,1,1,0,0,1,8499,0,55.850242,37.68279,2,Настроение ЖК,к2,2013,7,22,False,False,False,3,False,4,0.1549661648081657,0.7285733766244337,25.8
5022,5025,4,45.0,13.0,18.0,39,1,3,2.8,0,1,1,1,0,1,1,1,9649,0,55.579688,37.671085,5,Михневская улица,8,2013,4,45,True,True,True,0,True,0,0.17991792785035066,2.6082533202825307,45.0
10069,10073,3,65.8,10.7,0.0,11,2,3,3.2,2,0,2,2,2,0,4,1,1135,1,55.751016,37.686815,4,улица Золоторожский Вал,11С20,2023,2,20,False,True,True,0,False,4,0.10844929506103919,1.419008624927375,32.9
13851,13855,2,75.0,10.1,43.4,12,3,1,2.64,0,1,1,0,0,1,1,1,776,0,55.89558,37.532753,1,мкр. 15-й,к1506,1992,2,17,False,True,False,3,True,0,0.167644360801769,-0.28329206777706767,25.0
5939,5942,3,93.0,16.9,48.3,3,3,3,2.85,2,0,1,1,0,1,4,1,8284,1,55.752627,37.705023,4,Лефортово Парк ЖК,к5,2020,7,12,False,True,True,1,False,4,0.12669685448061477,1.4281697763906533,31.0
8860,8864,1,58.7,6.5,38.0,5,3,3,2.8,0,1,1,1,1,0,1,1,635,0,55.64442,37.480579,6,мкр. 9-й,к904,1974,3,9,False,True,False,1,True,0,0.13395265103744355,-2.309535571412388,19.566666666666666
14504,14509,0,69.5,15.1,30.7,9,2,1,2.8,1,1,1,0,0,0,2,2,2280,1,55.875925,37.603424,2,улица Римского-Корсакова,11к8,2021,2,23,False,True,True,1,False,4,0.14329929356465085,0.1669397117573878,34.75
19699,19706,4,65.4,10.0,34.9,3,2,3,2.8,0,1,2,2,0,1,4,1,9649,0,55.579688,37.671085,5,Михневская улица,8,2013,4,45,True,True,True,0,True,0,0.17991792785035066,2.6082533202825307,32.7
17406,17412,4,263.0,10.7,30.9,4,5,3,2.8,0,4,2,2,0,0,4,1,9640,0,55.733964,37.620905,0,2-й Казачий переулок,4С1,2005,0,7,True,True,True,0,True,1,0.041297559424069735,1.5866300760187522,52.6
22424,22432,1,89.4,13.0,52.7,4,3,1,2.8,0,1,1,0,0,1,2,2,586,0,55.745716,37.670573,0,улица Школьная,1к2,2014,0,4,True,True,True,1,True,0,0.09163492654148554,1.4493858027810997,29.8
18879,18885,4,205.0,16.0,134.0,9,4,2,3.0,0,2,2,2,0,0,3,1,2678,0,55.751974,37.578855,0,улица Новый Арбат,27,2010,2,16,True,True,True,1,True,0,0.01737265973311207,-0.0436235805080658,51.25
12033,12037,3,56.7,10.7,31.3,1,2,3,2.95,1,1,2,2,0,1,4,1,767,1,55.699543000000006,37.462415,7,Аминьевское шоссе,4А,2022,7,30,False,True,True,0,False,4,0.12233367423287513,-1.8615921657328949,28.35
2926,2928,3,43.2,13.7,18.3,5,1,3,2.8,1,0,0,1,0,0,4,1,9503,1,55.743507,37.407744,7,улица Академика Павлова,40К1,2021,2,26,False,True,True,1,False,0,0.17209833896235818,-1.5191218629749317,43.2
20284,20291,3,56.3,21.1,21.0,24,2,3,2.65,0,2,0,1,0,0,4,1,8281,1,55.617017,37.413718,11,Саларьево Парк ЖК,23,2021,3,24,False,True,True,1,False,4,0.20334942381514928,-2.1874631775168227,28.15
18409,18415,3,57.7,14.2,28.3,2,2,3,2.65,1,0,0,1,0,0,4,1,2280,1,55.875925,37.603424,2,улица Римского-Корсакова,11к8,2021,2,23,False,True,True,1,False,4,0.14329929356465085,0.1669397117573878,28.85
7844,7847,3,314.0,10.7,30.9,29,5,3,2.8,0,0,2,2,0,0,4,1,2640,1,55.734385,37.525342,7,Поклонная улица,вл9,2022,2,32,False,True,False,1,False,4,0.05427111687405752,-1.5750871651827465,62.8
20773,20780,3,69.28,11.5,30.9,22,2,3,2.85,0,0,2,2,0,0,4,1,6555,1,55.883202,37.683015000000005,2,Тайнинская улица,9к4,2020,0,24,True,True,True,0,False,0,0.1810229186377298,0.6079811584649509,34.64
8509,8513,1,31.0,6.0,18.0,2,1,3,2.8,1,0,1,0,1,0,4,2,7432,0,55.744622,37.756838,3,Мастеровая улица,11,1961,7,5,True,False,False,3,False,4,0.17750751798693648,1.5144075276718996,31.0
19072,19079,4,186.0,10.7,148.0,7,4,3,2.8,2,1,1,1,0,0,2,1,2678,0,55.751974,37.578855,0,улица Новый Арбат,27,2010,2,16,True,True,True,1,True,0,0.01737265973311207,-0.0436235805080658,46.5
23234,23242,4,130.0,12.0,30.9,7,3,3,2.9,2,0,2,2,0,0,2,2,3877,0,55.766673,37.583688,0,Зоологическая улица,28С2,1998,0,20,False,True,True,3,True,0,0.032313158926064164,0.12645823562098146,43.333333333333336
16060,16066,3,77.6,14.1,42.7,21,3,3,2.8,1,1,2,2,0,1,4,1,9382,0,55.776477,37.735359,3,Вольная улица,28С2,2019,7,25,False,True,True,0,True,4,0.16127344069714175,1.3082362015823663,25.866666666666664
17372,17378,3,125.4,10.7,30.9,4,3,3,2.8,0,0,2,2,0,0,4,1,248,1,55.75755600000001,37.651592,0,Подсосенский переулок,11,2018,2,4,False,True,False,1,True,0,0.07554594259716389,1.262294476579105,41.800000000000004
22653,22661,3,45.9,15.9,18.5,10,1,3,2.8,1,0,1,0,0,1,4,1,5121,1,55.784303,37.562775,1,Ленинградский проспект,29к3,2019,2,19,True,True,True,0,True,0,0.052460630090968983,-0.32673999194173436,45.9
7558,7561,1,145.7,20.0,80.0,3,4,1,3.0,3,0,1,0,0,0,0,2,6164,0,55.774897,37.625046000000005,0,улица Троицкая,88,2013,7,3,False,False,False,3,False,4,0.060717384252757904,0.8454600022594951,36.425
14334,14339,0,41.0,8.0,20.0,6,1,3,2.8,0,1,1,0,0,1,0,1,7992,0,55.669874,37.752688,4,Совхозная улица,10К2,2002,3,14,True,True,False,3,True,0,0.18478868075022045,1.9287593096541031,41.0
9538,9542,3,55.85,17.5,24.4,9,2,3,2.8,0,1,1,0,1,0,4,1,4571,1,55.666858,37.759866,4,улица Верхние Поля,32,2021,2,22,False,True,True,0,False,4,0.19256864147325797,1.9303685464568852,27.925
8488,8492,2,43.0,9.8,19.4,3,1,3,2.64,1,0,1,0,0,1,1,2,6661,0,55.74823000000001,37.827383000000005,3,Фрязевская улица,15К6,1972,3,14,False,True,False,1,True,0,0.24814401604125683,1.5159130036374076,43.0
21790,21798,0,89.9,8.5,56.7,4,3,1,2.8,0,1,1,0,1,0,2,1,8111,0,55.794538,37.78863,3,5-я Парковая улица,30Б,1956,0,5,True,False,False,3,False,0,0.21743663103355554,1.2916083589806193,29.96666666666667
9936,9940,3,55.72,11.0,29.0,20,2,3,2.8,0,1,1,0,1,0,4,1,4571,1,55.666858,37.759866,4,улица Верхние Поля,32,2021,2,22,False,True,True,0,False,4,0.19256864147325797,1.9303685464568852,27.86
4631,4634,1,80.5,15.0,45.0,20,2,3,2.8,0,1,0,1,0,0,2,1,3463,0,55.66559399999999,37.547594,6,Профсоюзная улица,64к2,2012,2,40,True,True,True,0,True,1,0.07608867319684699,-2.7072583383212607,40.25
21846,21854,4,77.6,8.5,43.3,17,3,3,2.8,0,2,2,2,1,0,1,1,4222,0,55.704408,37.919002,4,Рождественская улица,21к1,2012,7,19,False,True,True,3,False,0,0.3407312566000225,1.6595747630200153,25.866666666666664
7178,7181,3,34.0,9.9,15.6,9,1,3,3.0,1,0,2,2,0,0,4,1,7479,1,55.821689,37.592258,2,Огородный проезд,20к3,2020,2,23,False,True,True,0,False,4,0.08798458815868636,0.14422215291216084,34.0
17559,17565,2,92.0,9.1,65.5,2,3,1,3.0,2,0,1,1,0,0,2,1,9531,0,55.754684,37.599175,0,Мерзляковский переулок,10,1917,0,3,True,False,False,1,False,0,0.028023855485822476,0.7726870570641114,30.666666666666668
10211,10215,2,41.6,8.6,21.6,8,1,3,2.64,0,1,1,0,0,2,0,2,9250,0,55.650277,37.763638,4,Мячковский бульвар,27,1996,3,8,False,True,True,1,True,0,0.20243202187815637,2.0005401975211083,41.6
18174,18180,0,54.0,12.0,27.0,6,2,1,2.7,1,0,1,1,0,2,1,1,264,0,55.518117,37.355139,11,улица 1-я Нововатутинская,3,2019,2,12,True,True,True,0,True,3,0.311867007943507,-2.3381166169296086,27.0
22168,22176,4,223.1,30.0,143.1,2,4,3,2.8,2,1,1,0,0,0,0,2,1848,0,55.759618,37.4493,7,Островной проезд,7К1,2004,2,4,True,True,False,0,False,3,0.1326890531543002,-1.381251988187613,55.775
17474,17480,3,71.2,25.9,26.6,3,2,3,2.8,0,1,2,2,0,0,4,1,1352,1,55.78686999999999,37.494979,8,3-я Хорошевская улица,7к2,2019,2,22,False,True,True,1,False,0,0.09946423721261204,-1.0176865299016558,35.6
11957,11961,0,164.0,20.0,93.0,4,3,1,2.8,2,0,1,0,0,2,0,1,7820,0,55.665969,37.51432,6,Ленинский проспект,103,2013,7,32,True,True,True,0,True,4,0.0947406614464115,-2.381246836146103,54.666666666666664
17395,17401,4,156.0,18.0,98.0,24,4,3,2.8,0,0,1,0,0,0,0,2,7820,0,55.665969,37.51432,6,Ленинский проспект,103,2013,7,32,True,True,True,0,True,4,0.0947406614464115,-2.381246836146103,39.0
5687,5690,1,65.0,14.0,32.0,3,2,1,2.8,0,1,1,0,1,1,2,1,3014,0,55.70251,37.935522,4,улица Недорубова,18к1,2016,3,25,False,True,True,1,True,0,0.35735473117332067,1.6607663839927609,32.5
10025,10029,3,66.6,19.7,22.8,1,2,3,2.72,0,2,1,0,0,0,4,1,8136,1,55.722512,37.772918,4,2-я Институтская улица,6С12,2021,2,13,False,True,True,1,False,4,0.19368408047093175,1.6333402589509782,33.3
2681,2682,4,117.0,10.7,30.9,3,4,3,2.8,0,0,1,1,0,0,0,1,1335,0,55.75471999999999,37.509864,7,Береговой проезд,5Ак7,2017,2,25,False,True,True,0,False,4,0.07258763894447484,-1.290192380469462,29.25
13993,13998,4,38.0,10.7,30.9,6,1,3,2.8,1,0,2,2,0,0,4,1,5833,0,55.631879000000005,37.487056,6,улица Академика Виноградова,4К2,1975,3,14,True,True,True,1,True,4,0.13828232849457306,-2.4082849896430907,38.0
18630,18636,4,160.0,25.0,30.9,5,3,3,3.2,2,0,1,1,0,0,3,2,1882,0,55.711661,37.498564,7,Минская улица,1ГК3,2004,2,22,False,True,True,1,False,1,0.08423714231124686,-1.8468144566919296,53.333333333333336
1860,1860,3,38.6,13.6,10.8,1,1,3,2.72,1,0,0,1,0,0,4,1,8286,1,55.802057,37.597881,2,Складочная улица,6к4,2021,2,11,False,True,True,1,False,4,0.0698696668727887,0.2645383609293145,38.6
1196,1196,3,41.2,21.2,10.6,6,1,3,2.8,1,0,1,0,0,0,4,1,856,1,55.860423,37.541063,1,Ильменский проезд,17к1,2021,2,23,False,True,True,1,False,4,0.13157888987388963,-0.29733921578367,41.2
21228,21235,4,180.0,10.7,30.9,2,5,3,3.3,0,4,2,2,0,0,4,1,6685,0,55.727693,37.535359,7,Воробьевское шоссе,4,2017,2,16,True,True,True,0,True,0,0.0447921470456107,-1.7260189435615916,36.0
11703,11707,3,105.0,12.9,50.1,3,3,3,2.8,1,0,2,2,0,1,4,1,7644,1,55.784177,37.49709,8,3-я Хорошевская улица,19к3с2,2022,2,20,False,True,True,1,False,4,0.09626053157209488,-1.0299709604230574,35.0
23275,23283,0,100.8,20.0,30.9,4,3,3,2.8,0,0,2,2,0,0,4,0,4591,0,55.611302,37.696741,5,Шипиловский проезд,39К1,1997,2,10,False,True,True,0,False,0,0.17007604566859133,2.3819223662435354,33.6
22889,22897,3,51.1,8.5,28.4,14,2,3,3.0,1,0,2,2,0,1,4,1,8016,1,55.580192,37.587137,5,Варшавское шоссе,170Е,2020,2,19,False,True,True,0,False,4,0.15460907154819004,3.092906272771087,25.55
20350,20357,0,52.0,11.0,30.9,1,2,3,2.8,0,1,1,0,1,0,2,1,5815,0,55.494869,36.920013,10,улица Генерала Донскова,8,2017,3,3,True,False,False,1,False,2,0.7018199019381341,-1.9194260059472052,26.0
21189,21196,1,171.0,20.0,79.0,28,4,1,3.2,2,0,0,1,0,0,0,1,7820,0,55.665969,37.51432,6,Ленинский проспект,103,2013,7,32,True,True,True,0,True,4,0.0947406614464115,-2.381246836146103,42.75
7944,7947,1,94.0,10.0,63.0,3,4,3,2.64,0,1,1,0,0,1,1,2,2197,0,55.650409,37.343362,7,Лукинская улица,8,2009,3,17,False,True,True,3,True,0,0.25080966407122646,-1.9131956453313672,23.5
7706,7709,4,155.0,10.7,30.9,15,3,1,2.8,2,0,1,0,0,0,3,1,8776,0,55.723257,37.52766,7,Мосфильмовская улица,8,2011,2,53,True,True,True,0,True,0,0.05318029485201835,-1.7860848254754456,51.666666666666664
11923,11927,3,91.8,10.7,30.9,17,3,3,2.8,0,0,1,1,0,0,4,1,5379,1,55.600893000000006,37.724077,5,Каширское шоссе,65К1,2018,2,20,True,True,True,0,True,0,0.1968560341089893,2.3176085837460576,30.599999999999998
534,534,4,250.0,20.0,80.0,5,6,3,3.1,2,0,2,2,0,0,0,2,5516,0,55.807461,37.448465,8,Авиационная улица,79В,2011,2,32,True,True,True,0,False,0,0.1500193967930415,-1.0637948719152708,41.666666666666664
7279,7282,3,45.56,22.6,12.4,8,1,3,2.72,1,0,0,1,1,0,4,1,1656,1,55.802325,37.599858000000005,2,Складочная улица,6к6,2021,2,14,False,True,True,1,False,4,0.07066916769024198,0.29055199348972177,45.56
14406,14411,1,56.0,6.0,37.9,1,3,1,2.64,1,0,1,1,0,0,0,1,6891,0,55.808376,37.818499,3,15-я Парковая улица,48,1962,3,5,True,False,False,3,False,0,0.2500139314241111,1.2713239702359207,18.666666666666668
14283,14288,4,70.6,13.9,31.7,10,2,3,2.8,0,1,2,2,3,0,4,1,8804,0,55.698533,37.935513,4,Покровская улица,17Ак1,2018,7,25,True,True,True,1,True,0,0.35772503422903235,1.6718413828575946,35.3
14483,14488,2,44.0,13.7,17.2,8,1,3,2.8,0,1,2,2,1,0,1,1,7111,0,55.879909,37.596911,2,Бибиревская улица,4А,2019,7,20,False,True,True,0,False,4,0.146317282364369,0.11850230644167581,44.0
12447,12451,3,82.8,12.4,53.2,8,3,3,2.8,1,1,2,2,0,0,4,1,5782,1,55.707426,37.934031,4,Квартал Некрасовка ЖК,к8,2020,2,23,False,True,True,1,False,4,0.35545996637131877,1.6473688277911058,27.599999999999998
20012,20019,4,140.0,10.0,84.0,15,6,1,2.7,2,0,0,1,0,0,3,2,5183,0,55.68029,37.483436,7,улица Лобачевского,92К2,2000,2,27,False,True,True,1,True,4,0.1104602142780546,-2.084988908044336,23.333333333333332
14895,14900,3,78.6,22.5,40.8,8,3,3,2.65,0,2,1,1,0,0,4,1,4162,1,55.59516,37.741109,12,23-й км,5к1,2021,3,9,False,True,True,1,False,1,0.21337661199479122,2.2830961785656085,26.2
7244,7247,3,40.5,17.7,12.1,2,1,3,2.65,1,0,1,0,0,0,4,1,5090,1,55.883,37.638907,2,Полярная улица,27к5,2022,2,33,False,True,True,1,False,4,0.1597907411466502,0.3801666318479934,40.5
1975,1975,3,62.8,19.4,24.6,3,2,3,3.0,0,2,0,1,0,0,4,1,4035,1,55.85718000000001,37.627687,2,Сельскохозяйственная улица,вл35,2020,2,11,False,True,True,1,False,0,0.1316534181288076,0.37380320163730335,31.4
5254,5257,1,180.1,30.0,90.0,7,3,1,3.2,2,0,1,1,0,1,0,1,5990,0,55.710651,37.599435,5,3-й Донской проезд,1,2010,2,7,True,True,True,0,True,0,0.03110205158457936,2.4505595659304764,60.03333333333333
18636,18642,4,178.0,50.0,90.0,15,4,3,3.0,0,3,1,1,0,0,3,1,455,0,55.719014,37.478801,7,Нежинская улица,1к1,2008,2,31,True,True,True,0,False,3,0.10201207217844926,-1.7243601619911946,44.5
8782,8786,1,62.0,12.0,32.0,3,2,1,2.65,1,0,1,1,0,1,2,2,4140,0,55.713299,37.88483,3,Святоозерская улица,8,2006,3,14,False,True,True,3,True,0,0.30596101850664137,1.6405312118757895,31.0
17946,17952,3,123.9,16.9,65.2,14,3,3,3.1,1,1,2,2,0,0,4,1,3883,1,55.656986,37.559173,6,Херсонская улица,43к7,2019,2,32,False,True,True,1,False,4,0.08027754894360635,-2.884146323615714,41.300000000000004
9901,9905,3,68.9,19.2,32.2,6,2,3,2.85,2,0,0,1,1,0,4,1,1703,1,55.751107,37.71,4,Лефортово Парк ЖК,к14,2021,2,10,False,True,True,1,False,4,0.13142587664643202,1.4450014585199464,34.45
4839,4842,1,53.5,9.2,32.0,9,2,3,2.8,0,1,1,0,1,0,4,1,4415,0,55.541805,37.521201,6,улица Адмирала Лазарева,43,2003,3,17,False,True,True,3,True,0,0.20146642164776632,-2.8474365847173972,26.75
10049,10053,3,71.14,16.7,30.9,15,2,3,2.8,2,0,1,0,0,0,4,1,4571,1,55.666858,37.759866,4,улица Верхние Поля,32,2021,2,22,False,True,True,0,False,4,0.19256864147325797,1.9303685464568852,35.57
9354,9358,1,97.5,12.0,52.8,5,3,3,2.8,0,2,0,1,1,0,4,1,7611,0,55.504726,37.592545,6,улица Маршала Савицкого,24,2008,3,17,True,True,True,3,True,0,0.23025533096755602,3.085397682319155,32.5
18697,18703,4,81.0,16.0,33.0,12,2,1,2.95,1,1,1,1,0,1,2,1,6604,0,55.590785,37.451438,11,улица Сервантеса,1к3,2017,2,15,False,True,True,1,False,0,0.19265675797931306,-2.413696543341695,40.5
21256,21263,4,81.29,15.9,44.2,2,3,1,2.8,2,0,1,0,0,1,0,1,4703,1,55.643846,37.387577,7,м. Солнцево,Лучи ЖК,2013,2,23,False,True,True,3,False,4,0.2124081220192118,-2.0123520604936616,27.096666666666668
18725,18731,1,60.0,9.5,31.0,10,2,3,2.8,0,1,1,1,0,1,0,1,9081,0,55.62635,37.310932,11,улица Летчика Ульянина,7,2017,7,22,False,True,True,1,True,4,0.289674309032448,-1.9538528655912457,30.0
15519,15524,4,143.0,17.0,67.0,4,3,3,2.8,1,1,0,1,2,0,1,1,1039,0,55.734973,37.571013,0,Погодинская улица,4,2014,2,11,True,True,True,0,False,0,0.008606946966571593,-1.5295235074017546,47.666666666666664
4197,4200,0,36.0,8.0,19.0,8,1,3,2.64,0,0,2,2,0,0,1,2,939,0,55.754213,37.703649,4,мкр. 5-й,к513,1969,0,14,False,True,True,1,True,0,0.12557465286691294,1.4141123284825095,36.0
9301,9305,1,38.0,10.7,30.9,4,1,3,2.8,0,1,2,2,1,0,2,1,8700,0,55.559237,37.577822,6,Феодосийская улица,7к6,2018,2,17,True,True,True,1,False,1,0.1753900086308664,-3.1313831302780137,38.0
3497,3500,4,204.0,20.0,30.9,5,5,3,3.4,3,0,1,0,1,0,0,2,4496,0,55.740451,37.592716,0,Еропкинский переулок,16/23,2010,2,7,True,True,True,0,True,3,0.014343084369325179,1.1519727022218487,40.8
4014,4017,1,51.0,8.5,30.8,1,2,3,2.8,0,0,2,2,0,0,4,0,4450,0,55.741384,37.868454,3,Городецкая улица,9К2,1987,2,17,False,True,False,3,True,0,0.2889206204460427,1.5473755313969497,25.5
9535,9539,2,46.0,6.0,29.0,8,2,1,2.8,1,0,0,1,0,0,1,1,2223,0,55.697508,37.734452000000005,4,Люблинская улица,35К1,1965,4,9,False,True,False,3,True,0,0.159224296942392,1.806026282697561,23.0
18525,18531,3,57.9,9.7,33.4,19,2,3,2.8,0,0,2,2,0,1,4,1,8867,0,55.72513299999999,37.775263,4,улица Михайлова,31,2019,2,19,False,True,True,0,False,4,0.19588015463401495,1.61923705981134,28.95
11714,11718,1,55.0,12.0,32.0,11,2,3,2.65,0,1,1,0,1,0,4,1,9372,0,55.850691000000005,37.343972,8,улица Барышиха,36,1993,3,17,True,True,True,3,True,0,0.2626775066695611,-1.1130979573003517,27.5
10149,10153,1,35.0,9.5,20.0,14,1,3,2.8,0,0,2,2,0,0,4,0,9287,2,55.630507,37.798637,4,5-й Капотни кв-л,24,2013,7,16,False,False,False,3,False,4,0.2425092844379086,2.0145213575605885,35.0
5776,5779,2,45.0,5.0,28.0,4,2,1,2.8,0,1,1,0,1,0,2,1,5206,0,55.678783,37.75523,4,Таганрогская улица,11К2,1969,3,5,True,False,False,3,False,0,0.18427967220057379,1.8786247330948351,22.5
20935,20942,2,90.0,15.0,54.0,4,3,1,2.8,1,1,1,0,0,1,3,1,4449,0,55.707329,37.669827000000005,4,6-я Кожуховская улица,3К1,2003,7,9,False,True,True,1,True,0,0.0942513509751017,1.864535136406423,30.0
6582,6585,1,37.6,7.0,19.0,15,1,3,2.7,1,0,2,2,0,1,1,1,176,0,55.852122,37.343928000000005,8,переулок Ангелов,13,1994,3,17,True,False,False,3,False,0,0.26335234930714085,-1.1082972715733612,37.6
9159,9163,3,41.2,19.9,12.4,22,1,3,2.8,1,0,0,1,0,0,4,1,9503,1,55.743507,37.407744,7,улица Академика Павлова,40К1,2021,2,26,False,True,True,1,False,0,0.17209833896235818,-1.5191218629749317,41.2
888,888,1,65.0,10.0,36.0,2,2,3,2.8,1,0,1,1,2,0,1,2,6597,0,55.85925600000001,37.346326,8,Пятницкое шоссе,47,1993,2,17,False,True,True,1,True,0,0.26449444186651516,-1.0801097415956573,32.5
15749,15754,4,163.0,10.7,30.9,4,3,3,2.8,0,0,2,2,0,0,3,1,4611,0,55.739017,37.60381,0,1-й Зачатьевский переулок,5,2005,2,6,True,True,True,0,True,0,0.02459401744774051,1.3909585091055308,54.333333333333336
628,628,4,180.0,20.0,80.0,9,3,3,3.1,2,0,2,2,0,0,0,2,2612,0,55.807982,37.450845,8,Авиационная улица,77,2008,2,32,False,True,True,1,True,0,0.14820052341538736,-1.0529236519540488,60.0
12796,12800,1,40.0,10.0,20.0,2,1,3,2.8,1,0,1,0,0,1,4,1,5783,0,55.807238,37.718974,3,4-я Гражданская улица,36,2007,0,17,False,True,True,1,True,0,0.15714731491448639,1.0904176752821126,40.0
389,389,3,74.1,13.0,43.4,11,3,3,2.89,1,1,1,0,1,0,4,1,5540,1,55.554695,37.513916,11,Скандинавия ЖК,4.2,2019,7,14,False,True,True,0,False,4,0.1915418594103267,-2.791496315966316,24.7
14397,14402,1,31.0,6.0,19.0,1,1,3,2.5,1,0,1,0,0,0,1,2,6577,0,55.798287,37.773762,3,3-я Прядильная улица,7,1960,0,5,True,False,False,1,False,0,0.20432263995490654,1.2539086071908274,31.0
21225,21232,3,51.2,10.7,30.9,27,2,3,2.8,0,0,2,2,0,0,4,1,2640,1,55.734385,37.525342,7,Поклонная улица,вл9,2022,2,32,False,True,False,1,False,4,0.05427111687405752,-1.5750871651827465,25.6
7608,7611,4,121.0,10.7,30.9,33,3,3,3.3,2,0,0,1,0,0,3,2,8776,0,55.723257,37.52766,7,Мосфильмовская улица,8,2011,2,53,True,True,True,0,True,0,0.05318029485201835,-1.7860848254754456,40.333333333333336
1816,1816,4,32.5,10.7,28.0,2,1,3,2.8,1,0,1,0,0,0,4,1,2087,1,55.8053,37.617159,2,Шереметьевская улица,24,2019,2,10,True,True,True,0,False,4,0.08003558369403611,0.4882953323142687,32.5
22359,22367,4,43.2,19.0,15.1,8,1,3,2.8,0,1,2,2,1,0,0,1,7655,0,55.567097,37.496713,11,бульвар Скандинавский,4к1,2019,2,16,True,True,True,0,False,4,0.18691064099851754,-2.682064339266414,43.2
20319,20326,1,92.0,10.7,30.9,4,3,3,2.64,0,1,2,2,1,0,0,1,8552,0,55.745716,37.670573,0,улица Школьная,7к2,2014,0,4,True,False,False,1,False,0,0.09163492654148554,1.4493858027810997,30.666666666666668
13036,13040,1,44.6,5.1,30.0,5,2,3,2.8,0,0,2,2,0,0,4,0,1890,0,55.672174,37.595016,6,Нагорный бульвар,8,1961,4,5,True,False,False,3,False,0,0.06431563445112222,2.899745213961448,22.3
9670,9674,0,72.0,8.2,45.0,13,3,1,2.64,0,1,1,1,2,0,1,1,8199,0,55.636448,37.675648,5,Кантемировская улица,5К4,1992,3,14,False,True,False,1,True,0,0.13733214370392496,2.367184920176389,24.0
13281,13285,0,38.0,7.0,19.1,7,1,3,2.74,1,0,1,0,0,1,2,1,7957,0,55.871895,37.487173,1,улица Дыбенко,18К1,2007,2,17,False,True,True,3,True,0,0.1654995282339972,-0.5926356160207306,38.0
4489,4492,1,131.0,16.0,69.3,12,3,1,3.09,2,0,1,1,0,1,3,1,9291,0,55.677275,37.53738,6,улица Гарибальди,7,2009,2,19,True,True,True,2,True,1,0.07121656028049872,-2.506792256014182,43.666666666666664
708,708,3,53.52,13.2,27.4,16,2,3,3.1,0,1,2,2,0,0,4,1,3029,1,55.790195,37.472261,8,улица Берзарина,30К3,2021,2,25,True,True,True,0,False,0,0.12088501704665124,-1.0930803777799893,26.76
6280,6283,3,71.99,14.2,37.4,9,3,3,2.8,0,1,1,1,0,1,4,1,940,1,55.47444399999999,37.512128,11,Рязановское поселение,д. Алхимово,2021,2,13,False,True,True,1,False,4,0.2687835841243825,-2.887802833665989,23.996666666666666
14983,14988,3,193.4,20.2,103.2,30,4,3,3.1,3,0,1,1,0,1,4,1,4555,0,55.716037,37.503998,7,Минская улица,2,2017,2,39,True,True,True,0,True,0,0.07786410595756092,-1.811753243500359,48.35
11286,11290,3,80.86,12.1,48.3,16,3,3,2.7,0,2,2,2,0,1,4,1,6703,1,55.52117,37.354734,11,Новые Ватутинки центральный мкр,к2/3,2022,2,16,True,True,True,3,False,1,0.3100490038822408,-2.3301222367415053,26.953333333333333
12487,12491,4,48.0,10.7,30.9,23,1,3,3.0,0,0,2,2,0,0,4,1,4693,1,55.69624,37.488035,7,Мичуринский проспект,56,2020,2,51,True,True,False,0,False,4,0.09929411225438695,-1.9676375564373239,48.0
19040,19047,4,38.0,12.0,19.0,34,1,3,2.9,0,1,2,2,1,0,0,1,5227,0,55.75133,37.526887,0,Мукомольный проезд,2,2018,7,43,False,True,True,2,True,4,0.05531081338243816,-1.2638496308110518,38.0
1335,1335,3,101.2,17.9,54.5,11,2,3,2.8,1,1,2,2,0,0,4,1,7718,1,55.791132,37.566871,1,Ленинградский проспект,36к13,2019,2,25,True,True,True,0,False,4,0.05793268456033157,-0.2217512410968114,50.6
15320,15325,4,37.0,11.0,14.0,2,1,3,2.8,1,0,1,0,1,0,1,1,3364,0,55.939701,37.526178,2,Долгопрудная аллея,15к5,2019,7,14,True,True,True,1,True,4,0.21193005781289784,-0.25488410982669146,37.0
13974,13979,3,41.2,19.9,12.4,20,1,3,2.8,1,0,0,1,0,0,4,1,9503,1,55.743507,37.407744,7,улица Академика Павлова,40К1,2021,2,26,False,True,True,1,False,0,0.17209833896235818,-1.5191218629749317,41.2
9614,9618,3,64.61,13.8,30.0,2,2,3,3.0,1,1,2,2,0,1,4,1,7203,1,55.714414,37.657907,5,Восточная улица,4К1,2021,2,17,False,True,True,0,False,4,0.0808591778564888,1.8233370216842304,32.305
2265,2265,1,51.1,10.2,30.8,2,2,3,2.8,0,1,2,2,1,0,0,1,2324,0,55.496547,36.918342,10,улица Десятинная,7,2018,7,3,False,False,False,3,False,4,0.7028204375242516,-1.9163699074945058,25.55
6475,6478,4,30.6,20.0,80.0,4,1,3,3.1,2,0,2,2,0,0,0,2,5346,0,55.852309,37.408867,8,улица Героев Панфиловцев,49К1,2011,2,32,False,True,True,0,False,0,0.2073771163814438,-0.9673029002911249,30.6
20051,20058,3,39.5,18.1,11.1,2,1,3,2.66,1,0,1,0,0,0,4,1,7550,1,55.967224,37.153835,9,проспект Георгиевский,37к6,2020,3,17,False,True,True,1,False,4,0.4851723323446865,-1.0707913350580394,39.5
2136,2136,1,60.0,11.0,34.0,7,2,3,3.0,1,0,1,1,0,1,2,1,4155,0,55.874016000000005,37.589015,2,Высоковольтный проезд,1к1,2010,2,25,False,True,True,1,True,0,0.13971486692649396,0.06734783832418631,30.0
11837,11841,1,30.9,5.5,17.4,1,1,3,2.8,1,0,0,1,0,0,4,2,6299,0,55.749309,37.798026,3,Утренняя улица,7,1966,3,5,True,False,False,3,True,0,0.21890690970554724,1.5036345248918173,30.9
10591,10595,3,56.0,10.7,30.9,6,2,3,2.8,0,0,2,2,0,0,4,1,7122,1,55.76986899999999,37.570824,0,Большой Тишинский переулок,38,2020,0,7,True,True,False,1,False,4,0.036330181798856935,-0.24433335313822077,28.0
13762,13766,4,45.0,5.2,28.4,3,2,1,2.8,1,0,1,0,1,0,1,2,6280,0,55.572986,37.475189,11,пос. Коммунарка,4,1963,4,5,True,False,False,3,False,0,0.19242960416223368,-2.5679933596647,22.5
15355,15360,1,85.0,20.0,44.0,3,2,1,3.2,0,1,1,1,0,1,0,1,720,0,55.870925,37.682736,2,Изумрудная улица,18,2015,2,11,False,True,True,3,False,4,0.1709212284428536,0.6476809815558545,42.5
10288,10292,4,106.0,10.7,30.9,2,2,3,2.8,0,0,2,2,0,0,4,1,6468,0,55.758453,37.625055,0,Никольская улица,10/2С2б,2015,2,5,True,True,True,0,True,4,0.05131397150023545,1.0877309746357589,53.0
15102,15107,1,45.0,6.0,30.0,8,2,1,2.8,0,1,1,0,0,0,1,1,8010,0,55.61296,37.602023,5,Кировоградская улица,24К3,1970,3,9,False,True,False,1,True,0,0.12370473746108782,2.95942654643025,22.5
2550,2551,3,30.34,3.4,16.8,11,1,3,3.3,1,0,2,2,1,0,4,1,1143,1,55.717006000000005,37.428791,7,улица Петра Алексеева,12с1,2021,2,27,True,True,True,0,False,1,0.1518464294189665,-1.6870426953822486,30.34
16295,16301,4,86.9,10.7,30.9,15,2,3,2.8,2,0,1,0,0,1,0,1,5363,0,55.710961,37.609227,5,улица Серпуховский Вал,21к2,2017,2,16,True,True,True,0,True,0,0.03790328563581738,2.244823664042439,43.45
7217,7220,4,130.0,25.0,85.0,14,3,1,3.37,2,0,1,1,0,0,0,2,1136,0,55.823393,37.619899,2,улица Академика Королева,10,2010,2,21,True,True,True,0,True,0,0.09748854659180879,0.42601163898618677,43.333333333333336
16085,16091,1,39.0,7.0,22.0,7,2,1,2.8,0,1,1,0,1,0,4,2,6405,0,55.80641800000001,37.762758000000005,3,Щелковское шоссе,13К1,1965,4,12,True,True,False,1,True,0,0.19671677657662298,1.1971716665943504,19.5
17904,17910,3,58.7,8.4,43.1,1,2,3,3.1,1,0,1,0,0,0,4,1,1093,1,55.707852,37.606685,5,4-й Верхний Михайловский проезд,1,2021,2,13,False,True,True,0,False,4,0.03807000905793503,2.350501297457071,29.35
8971,8975,3,76.9,10.7,30.9,3,1,3,2.8,0,0,2,2,0,0,4,1,3463,0,55.66559399999999,37.547594,6,Профсоюзная улица,64к2,2012,2,40,True,True,True,0,True,1,0.07608867319684699,-2.7072583383212607,76.9
13241,13245,4,42.0,12.0,20.0,4,1,3,2.8,1,0,1,0,0,0,3,1,6387,0,55.775545,37.672118,0,Нижняя Красносельская улица,35С49,2018,2,9,True,True,True,3,False,4,0.10115471307396595,1.1542556393459744,42.0
13665,13669,4,45.1,5.5,33.0,5,2,3,2.8,1,0,2,2,1,0,1,1,6105,0,55.662547,37.585781,6,Болотниковская улица,44К1,1964,4,5,True,False,False,3,False,0,0.07233435519866713,3.056212983697877,22.55
21105,21112,4,56.2,8.0,31.7,3,2,1,2.8,0,1,1,0,1,0,3,1,1871,0,55.630146,37.514572,6,Профсоюзная улица,128А,2019,2,18,True,True,True,3,True,4,0.12306361392839238,-2.584745653155664,28.1
7886,7889,1,38.9,8.8,20.8,2,1,3,2.8,0,1,1,0,1,0,1,2,4927,0,55.63949100000001,37.344538,7,улица Скульптора Мухиной,7К1,1989,3,14,False,True,False,3,False,0,0.2535925800938493,-1.955319229690255,38.9
11460,11464,4,78.1,10.7,30.9,15,3,3,2.8,0,0,2,2,0,0,4,1,3032,1,55.701516000000005,37.948898,4,улица Лавриненко,11к1,2019,3,17,False,True,True,1,False,4,0.3707660010734261,1.6601950346800265,26.03333333333333
22347,22355,3,36.5,9.8,17.2,14,1,3,2.65,1,0,1,0,0,0,4,1,5751,1,55.542126,37.490209,11,улица Александры Монаховой,90к4,2022,3,17,False,True,True,1,False,4,0.2122407264887967,-2.706784007642108,36.5
17030,17036,4,65.2,13.8,33.7,6,2,3,2.8,0,1,2,2,2,0,4,1,4029,0,55.704027,37.940858,4,улица Вертолетчиков,13,2017,2,25,True,True,True,1,True,0,0.36253831209717363,1.6552764616332567,32.6
11352,11356,3,135.0,25.9,58.1,22,4,3,2.8,0,1,2,2,0,0,4,1,1352,1,55.78686999999999,37.494979,8,3-я Хорошевская улица,7к2,2019,2,22,False,True,True,1,False,0,0.09946423721261204,-1.0176865299016558,33.75
22715,22723,1,75.4,9.0,44.8,8,3,1,2.8,2,0,1,0,1,1,2,2,1717,0,55.827575,37.667905,2,проезд Кадомцева,23,2012,4,17,False,True,True,3,False,0,0.1282051998163116,0.7596672262712528,25.133333333333336
7793,7796,4,101.7,10.7,30.9,9,2,3,2.8,0,0,1,1,0,0,0,1,2640,1,55.734385,37.525342,7,Поклонная улица,вл9,2022,2,32,False,True,False,1,False,4,0.05427111687405752,-1.5750871651827465,50.85
6529,6532,4,60.3,20.0,80.0,15,2,3,3.1,2,0,2,2,0,0,0,2,4806,0,55.780709,37.469826,8,м. Хорошево,бульвар Генерала Карбышева,2011,2,32,False,True,True,0,False,0,0.11906928148292223,-1.1733173704504505,30.15
4498,4501,0,96.2,17.0,47.8,20,3,1,3.2,0,2,0,1,0,1,0,1,7518,0,55.664654000000006,37.546084,6,Профсоюзная улица,68к1,2018,7,20,False,True,True,0,False,4,0.07758292972446298,-2.6947006217774394,32.06666666666667
3511,3514,4,173.0,10.7,30.9,7,3,2,2.8,2,0,2,2,0,0,4,1,8564,0,55.723775,37.583095,0,2-я Фрунзенская улица,8,2012,5,11,True,True,True,0,True,4,0.011388361306584344,2.8308305172317803,57.666666666666664
11323,11327,2,32.0,5.2,20.3,4,1,3,2.64,1,0,1,0,1,0,1,1,3325,0,55.80105,37.827266,3,16-я Парковая улица,25К1,1966,3,5,True,False,False,3,False,0,0.2564087092007404,1.3087196470091251,32.0
6787,6790,3,75.6,6.8,48.9,2,2,3,2.8,1,2,1,1,0,0,4,1,2500,1,55.793035,37.54506,1,Ленинградский проспект,37К6,2020,7,41,False,True,False,0,False,4,0.06787079405721833,-0.5341318995159846,37.8
6384,6387,1,105.4,12.0,57.2,3,4,3,2.8,3,0,1,0,2,0,4,2,8572,1,55.588873,37.722154,5,25-й км,вл3с1,2013,7,16,False,False,False,3,False,4,0.2038617480105644,2.3673062005097028,26.35
21668,21676,3,166.8,10.7,30.9,40,3,3,2.8,0,0,2,2,0,0,4,1,4715,1,55.834472,37.65805,2,проспект Мира,188Бк1,2015,2,58,False,True,True,0,False,4,0.12697744174031916,0.6658488822341178,55.6
8788,8792,1,66.0,7.0,48.0,12,3,3,2.8,0,1,1,0,0,0,4,2,8091,0,55.776907,37.835054,3,Магнитогорская улица,27,1977,4,16,False,True,True,3,True,0,0.2589182703183391,1.406731241204001,22.0
3987,3990,2,40.0,7.0,24.0,11,2,1,2.64,0,0,2,2,0,0,1,1,7477,0,55.74037,37.770295,3,улица Плеханова,35,1973,4,12,False,True,False,3,True,0,0.19076912251722727,1.5406394334378253,20.0
2175,2175,1,36.0,6.5,20.5,5,1,3,2.64,1,0,1,0,1,0,1,1,9685,0,55.893157,37.570168,2,Илимская улица,2к1,1977,3,9,False,True,False,1,True,0,0.15882020403508618,-0.05950245948152594,36.0
3444,3447,4,130.0,20.0,95.0,7,3,3,2.8,2,0,1,0,1,0,3,2,7899,0,55.74226,37.633796,0,Большая Татарская улица,7к1,2012,2,10,True,True,True,3,True,4,0.054719659602445715,1.4306785723018294,43.333333333333336
5454,5457,1,35.0,6.0,19.0,6,1,3,2.8,1,0,1,1,1,0,1,1,6640,0,55.601477,37.59277,5,Чертановская улица,53К2,1971,3,9,False,True,False,3,False,0,0.13378941445142448,3.043089462546172,35.0
4786,4789,1,38.6,8.6,20.7,3,1,3,2.8,0,1,1,0,0,1,2,1,5560,0,55.542752,37.525836,6,улица Адмирала Лазарева,35К1,2003,3,12,False,True,True,3,True,0,0.19925971951617374,-2.868322142084981,38.6
17456,17462,3,37.66,10.1,14.5,9,1,3,2.8,1,0,2,2,1,0,4,1,6371,1,55.864303,37.372368,8,Муравская улица,38к1,2019,7,25,True,True,True,0,False,4,0.24447610288701213,-1.0116515813527238,37.66
11595,11599,3,58.67,19.8,24.6,21,2,3,2.75,0,2,0,1,0,0,4,1,8996,1,55.879187,37.529591,1,Дмитровский Парк ЖК,2,2021,2,33,False,True,True,1,True,0,0.15297841729306755,-0.3331112193718318,29.335
12192,12196,3,70.7,25.6,30.1,15,2,3,2.8,1,1,2,2,0,0,4,1,5782,1,55.707426,37.934031,4,Квартал Некрасовка ЖК,к8,2020,2,23,False,True,True,1,False,4,0.35545996637131877,1.6473688277911058,35.35
574,574,4,64.0,20.0,80.0,1,2,3,3.1,2,0,2,2,0,0,0,2,3725,0,55.774517,37.473006,8,проспект Маршала Жукова,37К2,2014,2,17,True,True,True,0,True,0,0.11382843050304191,-1.2126701421922879,32.0
5491,5494,1,38.0,8.0,19.0,14,1,3,2.8,1,0,0,1,0,1,4,2,4862,0,55.598909,37.593462,5,Кировоградская улица,44АК2,1981,3,17,False,True,True,3,False,0,0.13641371713418465,3.0398925777765347,38.0
17405,17411,4,182.4,10.7,30.9,7,3,3,2.8,0,3,2,2,1,0,4,1,8667,0,55.757739,37.574309,0,переулок Капранова,4,2004,7,14,True,False,False,3,False,0,0.023721616868079515,-0.22548323809957396,60.800000000000004
14796,14801,4,134.7,10.7,30.9,22,4,3,2.8,0,0,1,1,0,1,4,1,814,1,55.789922,37.453028,8,Живописная улица,21С1,2018,7,22,False,True,True,0,False,4,0.13813838119905214,-1.1588941610888324,33.675
8164,8167,4,120.0,12.5,77.1,3,3,3,3.2,2,0,2,2,0,1,0,2,6533,0,55.734359,37.622226,0,2-й Казачий переулок,5,2017,2,4,False,True,True,0,False,1,0.04261416900425649,1.5768710544093298,40.0
21532,21540,4,55.6,6.2,36.7,10,2,1,2.64,1,0,1,0,0,2,2,1,6567,0,55.767509,37.66707,0,Старая Басманная улица,24,1973,3,16,False,True,False,3,True,0,0.09343778874521996,1.2110775445302582,27.8
6989,6992,3,73.5,11.9,30.9,4,2,3,2.78,0,0,2,2,0,0,4,1,7140,1,55.87593,37.547719,1,м. Селигерская,Дмитровское шоссе,2019,2,24,False,True,True,1,False,4,0.14486656449282212,-0.22197703731941978,36.75
9388,9392,1,44.3,10.7,32.5,5,2,1,2.8,1,0,2,2,0,0,1,1,8048,0,55.703966,37.578990000000005,6,Ленинский проспект,43К11,1960,0,5,True,False,False,3,False,0,0.030658190693895315,-3.1212829071400985,22.15
9892,9896,3,66.8,6.0,41.8,15,3,3,3.1,0,1,1,1,0,0,4,1,8423,1,55.718922,37.727014,4,1-й Грайвороновский проезд,1,2020,2,22,False,True,True,1,False,4,0.14823470544351866,1.6768804338915557,22.266666666666666
1498,1498,3,70.31,10.7,67.8,14,3,3,2.8,0,1,1,1,0,0,4,1,6357,1,55.858609,37.546327000000005,1,м. Селигерская,Ильменский проезд,2021,2,39,False,True,True,0,False,4,0.12838120252763807,-0.2622680775510992,23.436666666666667
14634,14639,4,184.0,20.0,80.0,3,3,3,2.8,0,2,0,1,0,0,4,1,2402,0,55.73834300000001,37.616,0,улица Большая Якиманка,15,2015,2,6,True,True,True,0,True,4,0.036577564585082864,1.4687774584210522,61.333333333333336
13491,13495,3,40.1,19.0,11.7,28,1,3,2.7,1,0,1,0,0,0,4,1,3556,1,55.554552,37.557619,6,улица Поляны,5Ак5,2021,2,33,False,True,True,1,False,4,0.18140406824302643,-3.020052606690358,40.1
19733,19740,3,117.37,6.0,70.7,17,4,3,3.0,1,1,2,2,2,3,4,1,7203,1,55.714414,37.657907,5,Восточная улица,4К1,2021,2,17,False,True,True,0,False,4,0.0808591778564888,1.8233370216842304,29.3425
20673,20680,3,57.5,12.8,27.7,17,2,3,2.8,0,2,0,1,0,0,4,1,4108,1,55.839957,37.49524,1,Головинское шоссе,11С17,2021,7,24,True,True,True,1,False,4,0.13496322203507777,-0.6753271097206238,28.75
11967,11971,3,81.6,11.5,47.7,12,2,3,3.1,1,1,2,2,0,1,4,1,3883,1,55.656986,37.559173,6,Херсонская улица,43к7,2019,2,32,False,True,True,1,False,4,0.08027754894360635,-2.884146323615714,40.8
18229,18235,3,88.8,10.7,40.0,3,4,3,3.1,2,0,2,2,0,0,4,1,1093,1,55.707852,37.606685,5,4-й Верхний Михайловский проезд,1,2021,2,13,False,True,True,0,False,4,0.03807000905793503,2.350501297457071,22.2
16555,16561,4,75.6,50.0,15.0,8,3,3,2.8,1,0,2,2,1,0,2,1,370,0,55.572757,37.483104,11,улица Бачуринская,22к3,2013,2,17,False,True,True,3,False,3,0.1884485440593073,-2.6039392854593975,25.2
1341,1341,3,26.85,10.7,24.4,14,1,3,2.8,1,0,0,1,0,0,4,1,6357,1,55.858609,37.546327000000005,1,м. Селигерская,Ильменский проезд,2021,2,39,False,True,True,0,False,4,0.12838120252763807,-0.2622680775510992,26.85
22355,22363,3,67.5,10.7,29.8,2,2,3,2.8,1,1,2,2,0,0,4,1,2850,1,55.755814,37.617635,0,10-я фаза тер.,к8,2022,2,25,False,True,True,1,False,4,0.04353134049313315,1.0622402117424747,33.75
3472,3475,4,206.0,25.0,150.0,3,4,3,3.2,0,0,1,1,0,0,0,1,4603,0,55.75934399999999,37.650334,0,Подсосенский переулок,3,2007,5,9,True,True,True,0,False,0,0.07491926043699564,1.234453496757088,51.5
21108,21115,4,32.0,6.0,18.0,5,1,3,2.64,0,1,2,2,1,0,1,1,2607,0,55.683787,37.601753,6,Севастопольский проспект,13К1,1979,3,9,False,True,False,3,True,0,0.0554434277113727,2.730803598077263,32.0
6212,6215,3,39.5,10.5,16.7,2,1,3,2.89,1,0,1,0,0,1,4,1,8057,1,55.571123,37.512263,11,Сосенское поселение,д. Бачурино,2021,2,16,False,True,False,0,False,4,0.17682347912284138,-2.750838135529813,39.5
22780,22788,1,21.0,4.0,12.0,7,1,3,2.55,1,0,0,1,1,0,1,2,5809,0,55.78287099999999,37.728011,3,Щербаковская улица,11,1966,3,16,False,True,True,1,True,0,0.1560462904248018,1.2564202441231673,21.0
4392,4395,4,122.0,17.0,71.0,7,3,3,2.8,0,0,1,0,0,0,0,2,6061,0,55.66361800000001,37.514778,6,Ленинский проспект,107к1,2017,2,22,True,True,True,3,True,1,0.09614836886623127,-2.4015513243657693,40.666666666666664
17529,17535,4,221.0,20.0,30.9,8,4,3,3.3,2,1,1,0,2,0,0,2,6917,0,55.763493,37.599319,0,Богословский переулок,12А,2011,2,8,True,True,False,3,False,1,0.034958758205305085,0.5988630452751241,55.25
4615,4618,3,80.4,10.7,30.9,15,2,3,2.8,0,0,2,2,0,0,4,1,2434,1,55.662136,37.512559,6,улица Эльдара Рязанова,2,2019,7,17,False,True,True,0,False,4,0.09874111990699645,-2.3950771782065803,40.2
2395,2395,4,140.0,10.7,30.9,7,4,1,3.1,2,2,1,0,0,0,0,1,8776,0,55.723257,37.52766,7,Мосфильмовская улица,8,2011,2,53,True,True,True,0,True,0,0.05318029485201835,-1.7860848254754456,35.0
2624,2625,3,110.88,13.9,72.3,27,5,3,3.3,2,0,2,2,0,1,4,1,1143,1,55.717006000000005,37.428791,7,улица Петра Алексеева,12с1,2021,2,27,True,True,True,0,False,1,0.1518464294189665,-1.6870426953822486,22.176
9314,9318,1,42.3,10.7,30.9,2,1,3,2.8,1,0,2,2,1,0,2,1,8911,0,55.603654000000006,37.534263,6,Ясногорская улица,13К2,1985,2,22,False,True,True,3,False,0,0.13859337096782923,-2.8082394577295036,42.3
3665,3668,1,31.0,6.0,18.0,5,1,3,2.7,1,0,0,1,1,0,1,1,9641,0,55.815054,37.712327,3,Игральная улица,5,1970,0,9,False,True,False,3,False,0,0.15518723766218845,1.0259149263165421,31.0
8479,8483,4,97.3,9.8,71.0,4,4,3,3.1,0,1,1,1,2,0,1,1,6670,0,55.794239000000005,37.812902,3,13-я Парковая улица,4,1954,0,5,True,False,False,1,False,0,0.2407874903068301,1.3205847768832237,24.325
22253,22261,4,40.0,7.0,20.0,10,1,3,2.8,1,0,1,0,0,1,2,1,7223,0,55.636605,37.314023,11,улица Бориса Пастернака,31к1,2017,3,17,True,True,True,3,True,0,0.2830978047835769,-1.924330505482704,40.0
22385,22393,4,40.0,10.7,21.0,2,2,0,2.8,1,0,1,0,0,0,3,1,3577,0,55.576874,37.481585,11,улица Бачуринская,13,2016,4,22,False,True,True,0,True,0,0.18572167779032292,-2.5855607827271623,20.0
4641,4644,1,99.0,14.0,54.0,8,2,3,2.8,2,0,1,0,0,1,2,1,7638,1,55.659231000000005,37.560835,6,Херсонская улица,43,2012,2,23,True,True,True,2,True,3,0.07769027454453926,-2.8974768598472407,49.5
11220,11224,3,81.5,10.1,49.2,3,3,3,2.8,0,2,1,1,1,1,4,1,6512,1,55.854987,37.559155,1,Дмитровское шоссе,71к1,2021,2,24,False,True,True,1,True,0,0.12209521723868048,-0.16834869316506043,27.166666666666668
13522,13526,1,39.0,9.0,30.9,12,1,3,2.8,0,1,2,2,1,0,1,1,5168,0,55.575017,37.586329,6,Старобитцевская улица,15К1,1992,3,12,False,True,True,3,True,0,0.1597421260157574,3.0995350991161494,39.0
14079,14084,1,47.4,10.7,30.9,1,2,3,2.8,0,1,2,2,1,0,2,1,740,0,55.65144,37.603289,6,Симферопольский бульвар,16К3,1967,4,12,True,True,False,3,False,0,0.08648195652018532,2.864279428195536,23.7
4570,4573,4,53.4,9.5,31.0,6,2,3,2.8,0,1,1,0,1,0,2,2,2860,0,55.67826,37.537191,6,улица Гарибальди,5к1,2006,0,17,False,True,True,1,True,0,0.07053937116105863,-2.4963538888932972,26.7
985,985,4,39.4,10.7,30.9,2,2,3,2.8,0,0,2,2,0,0,4,0,222,2,55.839684,37.415865,8,проезд Донелайтиса,14К1,2013,7,14,False,False,False,3,False,4,0.19455635245915853,-1.0003243971552345,19.7
1646,1646,3,86.7,19.2,39.2,13,3,3,2.8,2,2,1,1,0,1,4,1,5121,1,55.784303,37.562775,1,Ленинградский проспект,29к3,2019,2,19,True,True,True,0,True,0,0.052460630090968983,-0.32673999194173436,28.900000000000002
15489,15494,4,100.0,11.0,65.0,5,4,3,2.64,0,1,1,1,0,0,1,1,8629,0,55.746416,37.677292,0,улица Сергия Радонежского,12К2,1985,3,22,False,True,False,3,True,0,0.09838931716048875,1.4505943440333233,25.0
17612,17618,3,104.5,34.3,31.8,12,2,3,2.8,1,1,2,2,1,0,4,1,1168,1,55.788353,37.567922,1,Ленинградский проспект,36С11,2019,7,15,True,True,False,0,False,4,0.054992135406054084,-0.2142217952375663,52.25
4472,4475,4,110.0,25.7,55.1,5,3,1,2.8,2,0,2,2,0,0,2,1,3463,0,55.66559399999999,37.547594,6,Профсоюзная улица,64к2,2012,2,40,True,True,True,0,True,1,0.07608867319684699,-2.7072583383212607,36.666666666666664
21180,21187,2,58.0,15.0,37.0,3,1,3,2.8,1,0,1,0,0,1,3,1,8178,0,55.664258,37.516018,6,Ленинский проспект,105к1,2011,2,18,False,True,True,3,True,0,0.09484084749682263,-2.4066557152994417,58.0
9479,9483,3,72.38,14.8,32.1,7,2,3,3.0,2,0,2,2,0,2,4,1,7203,1,55.714414,37.657907,5,Восточная улица,4К1,2021,2,17,False,True,True,0,False,4,0.0808591778564888,1.8233370216842304,36.19
9183,9187,0,81.6,14.0,29.0,27,3,3,2.8,1,0,2,2,0,0,3,1,3463,0,55.66559399999999,37.547594,6,Профсоюзная улица,64к2,2012,2,40,True,True,True,0,True,1,0.07608867319684699,-2.7072583383212607,27.2
19472,19479,1,42.0,5.5,27.0,9,2,1,2.65,0,1,0,1,1,0,1,2,729,0,55.746314,37.815911,3,Свободный проспект,39К1,1971,0,9,True,True,False,1,True,0,0.23658766913244306,1.5213393892124947,21.0
9866,9870,4,38.0,7.0,23.0,3,2,3,2.8,0,0,2,2,1,0,4,1,8861,0,55.710966000000006,37.761824,4,Жигулевская улица,8,1965,3,9,False,True,False,3,False,0,0.18374003061109134,1.6998791314716004,19.0
11015,11019,3,51.54,10.7,30.9,15,1,3,3.0,0,0,2,2,0,1,4,1,2570,0,55.681047,37.551088,6,улица Вавилова,69А,2019,2,20,True,True,True,0,True,1,0.06069177601401412,-2.6523115348150736,51.54
19420,19427,1,30.0,6.0,16.0,4,1,3,2.64,1,0,1,0,1,0,1,2,887,0,55.756224,37.835324,3,улица Молостовых,11К6,1971,0,9,False,True,True,1,True,0,0.2566225559083138,1.4865023322386473,30.0
14179,14184,1,36.0,7.0,21.9,1,1,3,2.48,1,0,0,1,0,0,1,2,100,0,55.60334399999999,37.729134,5,Ясеневая улица,17,1977,3,12,False,True,False,1,True,0,0.19897103377044598,2.2913006115511725,36.0
2724,2725,4,178.0,10.7,30.9,7,4,3,2.8,0,0,1,1,0,0,0,1,2765,0,55.717847,37.512191,7,улица Улофа Пальме,1,2000,7,12,False,True,False,0,True,0,0.06947615767443162,-1.8145945502363745,44.5
16315,16321,4,56.0,10.1,32.0,22,2,1,2.64,0,1,1,0,0,1,1,2,162,0,55.535554000000005,37.502274,6,улица Академика Понтрягина,11к1,2007,3,22,False,True,True,1,True,0,0.21355955894327056,-2.7710291518108647,28.0
6848,6851,3,37.3,11.5,15.8,7,1,3,3.0,1,0,2,2,0,0,4,1,3382,1,55.799193,37.565147,1,улица Юннатов,4Б,2021,7,25,False,True,False,0,False,4,0.06617553756347035,-0.22037403939080488,37.3
16432,16438,4,42.0,6.5,24.0,5,2,1,2.65,0,1,0,1,1,0,1,2,9688,0,55.723744,37.42792,7,улица Красных Зорь,49,1968,7,12,False,True,False,1,True,0,0.1520818567024623,-1.642357488045479,21.0
7654,7657,3,102.4,29.9,40.4,11,3,3,3.0,2,0,1,0,0,1,4,1,756,1,55.714186,37.433382,7,Лайф Кутузовский ЖК,к8,2020,7,18,False,True,True,1,False,4,0.14765112479525527,-1.70962116862003,34.13333333333333
20639,20646,3,110.2,15.4,65.8,14,4,3,3.0,1,1,2,2,0,1,4,1,743,1,55.798723,37.565084000000006,1,улица Юннатов,4Г,2021,7,25,False,True,False,0,False,4,0.06573088075170737,-0.22287234822944652,27.55
15116,15121,2,56.0,9.5,37.0,6,2,0,2.64,1,0,1,0,1,0,2,1,4764,0,55.656052,37.612039,5,Болотниковская улица,5К2,2002,4,17,False,True,False,3,True,0,0.08499450506923867,2.7501617091769095,28.0
5032,5035,4,67.9,13.4,34.0,2,2,1,2.8,0,1,1,1,0,1,0,1,2626,0,55.576793,37.673403,5,Ягодная улица,8к1,2011,4,24,False,True,True,0,True,0,0.18359009998441786,2.605397984853121,33.95
240,240,2,53.0,9.2,30.9,5,2,1,3.0,2,0,1,0,0,1,0,1,4388,0,55.567657,37.498644,11,бульвар Скандинавский,3к2,2019,2,16,False,True,True,0,True,4,0.18555820754022714,-2.690052792589668,26.5
13229,13233,0,40.3,12.0,17.0,24,1,3,2.8,1,0,0,1,0,1,2,1,602,0,55.844324,37.371506,8,Митинская улица,28к5,2016,2,25,False,True,True,1,False,0,0.23525262927039872,-1.0856551074461598,40.3
11425,11429,4,30.2,5.5,17.6,5,1,3,2.64,0,1,0,1,1,0,1,2,7103,0,55.852738,37.410636,8,улица Героев Панфиловцев,47К2,1967,3,5,True,False,False,3,False,0,0.20616853008674965,-0.9607200464428897,30.2
3309,3312,4,115.0,16.0,56.0,2,3,1,3.1,2,1,1,1,1,0,0,1,4254,0,55.74055799999999,37.640929,0,Садовническая улица,57С1,2016,2,7,True,True,True,0,False,4,0.0616034411395117,1.474220943793765,38.333333333333336
13304,13308,4,70.0,10.0,50.0,14,3,3,2.8,2,0,2,2,0,0,2,1,9144,0,55.86154499999999,37.671274,2,улица Искры,1,2014,2,18,True,True,True,0,True,1,0.15656406341231976,0.6254425153962325,23.333333333333332
9792,9796,1,39.0,8.4,19.2,14,1,3,2.8,1,0,0,1,0,1,2,1,1067,0,55.639115,37.691216,5,Каширское шоссе,53К1,1988,3,17,False,True,True,1,True,0,0.14688809621141277,2.27861017257728,39.0
12627,12631,4,89.1,11.8,47.9,18,3,3,2.8,0,1,2,2,1,0,0,1,4542,0,55.880945,37.54118,1,Дмитровское шоссе,107к3,2019,2,24,True,True,True,1,False,4,0.15129010432231416,-0.2568473515961369,29.7
5873,5876,3,64.6,10.7,0.0,2,2,3,3.2,1,1,2,2,1,0,4,1,1135,1,55.751016,37.686815,4,улица Золоторожский Вал,11С20,2023,2,20,False,True,True,0,False,4,0.10844929506103919,1.419008624927375,32.3
3805,3808,1,31.0,6.0,18.0,7,1,3,2.64,0,0,2,2,1,0,2,2,4467,0,55.81565,37.71433,3,Игральная улица,10,1967,0,9,True,True,False,1,True,0,0.1572099858307635,1.029276651557676,31.0
4841,4844,1,59.0,6.0,45.0,1,3,3,2.8,0,1,2,2,1,0,1,1,48,0,55.603151,37.512829,6,Голубинская улица,9,1977,3,9,False,True,True,1,True,0,0.1474570747221647,-2.6715749271478644,19.666666666666668
8018,8021,4,223.4,17.0,149.0,12,5,3,2.8,2,0,0,1,0,2,3,1,5614,0,55.722999,37.612829,0,улица Шаболовка,23к1,2006,4,20,False,True,True,3,True,0,0.035189858938896486,1.9072869850514933,44.68
16063,16069,1,86.7,11.9,48.8,2,3,1,3.2,2,0,1,0,1,0,4,1,2826,0,55.723607,37.824032,3,Вешняковская улица,18к1,2019,3,13,False,True,True,0,True,1,0.24466727174578812,1.6158149675201905,28.900000000000002
20938,20945,4,37.4,10.7,30.9,15,1,3,2.8,0,0,2,2,0,0,4,1,3032,1,55.701516000000005,37.948898,4,улица Лавриненко,11к1,2019,3,17,False,True,True,1,False,4,0.3707660010734261,1.6601950346800265,37.4
15327,15332,4,52.0,9.0,32.0,3,2,1,3.2,1,0,1,0,1,0,2,2,6278,0,55.79429,37.607215,2,2-я Ямская улица,7,1956,4,4,True,False,False,3,False,0,0.06574690018733971,0.4332556863374339,26.0
3933,3936,1,31.0,6.0,21.0,5,1,3,2.8,1,0,1,0,1,0,1,1,3952,0,55.749841,37.784461,3,2-я Владимирская улица,40,1965,4,9,False,True,False,1,True,0,0.20541325092860363,1.496618533938688,31.0
18314,18320,4,305.0,53.0,148.0,3,4,3,3.7,2,1,1,1,3,0,2,2,6888,0,55.74276700000001,37.600792,0,улица Остоженка,7С1,1910,0,5,False,True,False,1,False,0,0.022693051954464746,1.2034902344313463,76.25
18974,18981,4,84.1,8.2,30.3,21,2,1,2.7,0,1,0,1,2,0,0,2,3655,0,55.769135,37.494521,8,Карамышевская набережная,2А,2011,2,32,True,True,True,0,False,0,0.09182600797328824,-1.1854316193935563,42.05
21918,21926,1,39.0,12.0,26.0,10,1,3,2.64,1,0,2,2,0,0,3,1,3679,0,55.645476,37.707215000000005,4,Донецкая улица,30к1,2019,2,32,True,True,True,0,True,1,0.15565551929162705,2.180575983931876,39.0
7600,7603,0,57.0,7.0,39.0,8,2,1,2.8,1,0,1,0,1,0,3,1,347,0,55.68196,37.609218,6,улица Нагорная,8,2010,7,17,False,True,True,1,True,0,0.060409682466533665,2.629414818804543,28.5
115,115,0,27.9,5.3,14.1,7,1,3,2.8,1,0,2,2,1,0,4,2,1765,1,55.52117,37.354734,11,Новые Ватутинки центральный мкр,к8/2,2019,3,12,False,True,True,0,False,4,0.3100490038822408,-2.3301222367415053,27.9
6634,6637,4,77.7,26.2,31.5,14,2,1,2.8,2,0,2,2,0,0,0,1,2374,1,55.790939,37.475495,8,улица Берзарина,28Ак1,2017,2,24,False,True,True,0,False,1,0.11837460939931353,-1.0749374405553158,38.85
15352,15357,1,53.6,10.0,32.2,5,2,1,2.64,0,1,1,0,1,0,1,2,5276,0,55.86760699999999,37.621687,2,Юрловский проезд,13А,1975,3,16,False,True,False,1,True,0,0.13948606720592382,0.3064108438211752,26.8
3411,3414,4,110.0,10.7,30.9,51,3,3,2.8,0,0,1,1,0,0,3,1,9625,0,55.747115,37.539078,0,набережная Пресненская,8с1,2009,0,73,True,True,True,0,True,0,0.04241737272455526,-1.2717353796076767,36.666666666666664
6669,6672,1,67.0,10.7,30.9,5,3,1,2.8,1,0,0,1,0,0,3,1,3725,0,55.774517,37.473006,8,проспект Маршала Жукова,37К2,2014,2,17,True,True,True,0,True,0,0.11382843050304191,-1.2126701421922879,22.333333333333332
4713,4716,2,91.0,17.0,21.15,22,2,3,2.8,2,0,2,2,0,0,0,1,8735,0,55.663913,37.576178000000006,6,Севастопольский проспект,28к3,2008,3,23,True,True,True,0,True,0,0.07078824010620088,-3.093053993774457,45.5
20372,20379,4,58.09,17.7,26.8,27,2,1,2.8,1,0,1,0,0,0,0,1,4574,0,55.75461800000001,37.524058,0,Шмитовский проезд,39к1,2019,2,55,True,True,True,0,True,0,0.05904507418409132,-1.2252332582556094,29.045
17703,17709,4,64.4,15.3,31.0,2,2,3,2.8,1,1,2,2,0,1,4,1,6064,1,55.810364,37.702535,3,Краснобогатырская улица,38,2022,3,17,False,True,True,1,False,0,0.14438624832926902,1.0185421248552642,32.2
14716,14721,4,185.0,10.7,30.9,25,3,3,2.8,0,0,2,2,0,0,4,0,9625,0,55.747115,37.539078,0,набережная Пресненская,8с1,2009,0,73,True,True,True,0,True,0,0.04241737272455526,-1.2717353796076767,61.666666666666664
9601,9605,2,75.0,8.5,47.0,6,3,1,3.2,0,1,1,1,0,0,1,1,9299,0,55.693226,37.620761,5,Варшавское шоссе,16,1958,0,13,False,True,False,1,True,0,0.05836502486345325,2.3591443775880117,25.0
22318,22326,0,39.55,12.0,18.0,11,1,3,3.0,1,0,1,0,0,1,0,2,9081,0,55.62635,37.310932,11,улица Летчика Ульянина,7,2017,7,22,False,True,True,1,True,4,0.289674309032448,-1.9538528655912457,39.55
6431,6434,2,62.7,11.0,37.0,14,2,3,2.8,0,1,1,0,0,1,1,2,4319,0,55.636646,37.331216,11,улица Анны Ахматовой,12,2015,2,20,False,True,True,3,True,1,0.2670194119694841,-1.946480593830444,31.35
23153,23161,3,40.01,10.5,18.0,8,1,3,2.7,0,1,2,2,0,0,4,1,6703,1,55.52117,37.354734,11,Новые Ватутинки центральный мкр,к2/3,2022,2,16,True,True,True,3,False,1,0.3100490038822408,-2.3301222367415053,40.01
3349,3352,4,221.8,46.0,130.0,6,5,3,2.8,0,4,1,1,0,0,4,1,3265,1,55.77468399999999,37.674067,0,Нижняя Красносельская улица,35С50,2015,2,9,True,True,True,3,True,4,0.10260080584199295,1.1696161960816167,44.36
5035,5038,4,43.2,5.8,28.9,2,2,3,2.48,0,0,1,0,1,0,3,1,7301,0,55.66667,37.621076,5,Варшавское шоссе,52/2,1962,0,5,True,False,False,3,False,0,0.0795997792466511,2.593689799523676,21.6
7372,7375,1,87.9,11.0,26.0,7,3,3,2.8,0,1,1,0,1,0,0,2,2851,1,55.821108,37.591431,2,Огородный проезд,20к1,2020,2,23,False,True,True,0,False,0,0.08729385502369945,0.13580323410883552,29.3
2710,2711,4,180.8,10.7,30.9,12,5,3,2.8,0,0,1,1,0,0,0,1,8638,0,55.735829,37.439086,7,Молодогвардейская улица,8к1,2013,2,15,False,True,True,3,True,0,0.14053183626322552,-1.562178015470344,36.160000000000004
21825,21833,1,47.0,7.0,31.0,4,2,3,2.64,0,1,2,2,1,0,1,1,2650,0,55.770152,37.83713,3,Саянская улица,15К3,1972,4,9,False,True,False,3,True,0,0.259957452195045,1.4336749234578725,23.5
3689,3692,4,39.0,7.0,22.0,7,2,1,2.64,0,1,1,1,1,0,1,2,6405,0,55.80641800000001,37.762758000000005,3,Щелковское шоссе,13К1,1965,4,12,True,True,False,1,True,0,0.19671677657662298,1.1971716665943504,19.5
22648,22656,0,40.6,13.2,44.6,29,1,1,2.64,0,1,1,1,0,2,1,1,679,1,55.808938,37.578648,1,Дмитровское шоссе,1Б,2021,3,58,False,True,True,0,True,0,0.07432639184875657,-0.012978490289029865,40.6
3229,3232,4,108.0,10.9,58.0,2,4,3,3.2,1,1,1,1,0,1,2,1,74,0,55.776892,37.630095,0,улица Гиляровского,19,1913,0,6,False,True,False,1,False,0,0.0658450697655691,0.8736606934978394,27.0
1380,1380,3,42.3,6.3,29.8,17,2,3,2.8,0,2,0,1,1,1,4,1,6512,1,55.854987,37.559155,1,Дмитровское шоссе,71к1,2021,2,24,False,True,True,1,True,0,0.12209521723868048,-0.16834869316506043,21.15
10934,10938,4,77.0,10.1,45.8,14,3,1,2.64,0,1,1,1,0,1,1,1,6224,0,55.713562,37.757476,4,Окская улица,5К1,2006,3,17,False,True,False,3,True,0,0.179105366995974,1.6886301662372303,25.666666666666668
20307,20314,1,60.0,10.7,60.0,1,1,3,2.8,0,1,1,0,0,0,0,2,4782,0,55.852192,37.384379,8,улица Центральная,27,2010,2,3,True,False,False,1,False,1,0.22790314139647488,-1.028744030675173,60.0
2599,2600,4,45.9,12.6,18.7,4,1,3,2.8,1,0,2,2,0,0,2,1,5439,0,55.705062,37.495518,7,Мосфильмовская улица,88к2с7,2015,7,21,True,True,True,3,True,4,0.08913727604342303,-1.908770943296253,45.9
14564,14569,3,82.4,7.8,52.9,5,2,3,2.8,1,2,1,1,0,0,4,1,2500,1,55.793035,37.54506,1,Ленинградский проспект,37К6,2020,7,41,False,True,False,0,False,4,0.06787079405721833,-0.5341318995159846,41.2
20363,20370,4,40.0,10.7,30.9,12,1,3,2.8,0,0,2,2,1,0,3,1,1673,0,55.712639,37.617042,5,улица Городская,20,2018,2,21,True,True,True,1,True,0,0.04340540662637333,2.10175753663584,40.0
20089,20096,1,34.2,7.8,14.0,2,1,3,2.8,1,0,1,0,0,0,2,1,7922,0,55.965708,37.152874,9,мкр. 17-й,к1709,2013,7,11,False,True,True,3,False,4,0.4852921765674666,-1.0744821997397949,34.2
11400,11404,4,48.0,14.0,19.0,3,1,3,2.8,1,0,1,0,0,0,3,2,5439,0,55.705062,37.495518,7,Мосфильмовская улица,88к2с7,2015,7,21,True,True,True,3,True,4,0.08913727604342303,-1.908770943296253,48.0
19696,19703,4,64.1,10.0,30.5,20,2,3,2.8,0,1,2,2,0,1,4,1,9649,0,55.579688,37.671085,5,Михневская улица,8,2013,4,45,True,True,True,0,True,0,0.17991792785035066,2.6082533202825307,32.05
18316,18322,4,55.0,10.0,35.0,14,2,1,2.8,0,1,1,0,0,1,2,1,1494,0,55.730203,37.668273,0,1-я Дубровская улица,1К1,1989,3,17,True,False,False,3,False,0,0.08877023444532776,1.6205505030186258,27.5
1668,1668,3,114.7,48.8,38.0,2,2,3,2.8,2,1,2,2,0,0,4,1,1168,1,55.788353,37.567922,1,Ленинградский проспект,36С11,2019,7,15,True,True,False,0,False,4,0.054992135406054084,-0.2142217952375663,57.35
20781,20788,0,71.9,20.3,33.6,15,2,1,2.8,2,0,1,1,0,0,1,1,9402,1,55.882308,37.635251,2,Полярная улица,27к3,2019,7,25,False,True,True,1,False,4,0.1578227003914352,0.3602810597736206,35.95
16137,16143,2,18.0,10.7,30.9,3,1,3,2.8,1,0,1,1,0,0,4,1,1867,1,55.651415,37.723187,4,улица Перерва,16,2020,3,6,True,True,True,3,False,4,0.16594071410627037,2.0960137889527033,18.0
2580,2581,4,52.0,8.0,30.9,20,2,1,2.8,0,1,1,0,0,0,2,1,3285,0,55.672757,37.494126,7,проспект Вернадского,58,2017,3,20,True,True,True,3,False,0,0.10552122396688456,-2.197207377508065,26.0
22970,22978,0,45.6,5.4,29.6,5,2,1,2.48,0,1,1,0,1,0,1,1,9154,0,55.675453000000005,37.575316,6,Новочеремушкинская улица,39К2,1965,4,5,True,False,False,3,False,0,0.059320675239839527,-3.0690988233942664,22.8
5005,5008,4,59.5,6.0,40.0,4,3,3,2.8,0,1,2,2,0,1,1,1,3939,0,55.60115699999999,37.666719,5,Элеваторная улица,14,1973,4,12,False,True,False,1,True,4,0.15937165734878014,2.56334023310678,19.833333333333332
23173,23181,3,42.3,16.0,15.3,8,1,3,2.65,0,1,1,0,0,0,4,1,7411,1,55.617017,37.413718,11,Саларьево Парк ЖК,30,2021,3,16,False,True,True,1,False,4,0.20334942381514928,-2.1874631775168227,42.3
21313,21320,0,53.0,9.0,30.0,14,2,3,2.8,0,0,0,1,0,0,1,2,5174,0,55.882767,37.5251,1,мкр. 14-й,к1445,1991,3,14,False,True,False,3,True,0,0.15786003544547897,-0.3525823701591821,26.5
18109,18115,3,20.4,5.1,9.4,7,1,3,2.65,1,0,1,0,1,0,4,1,5633,1,55.72561,37.775397,4,Саларьево Парк ЖК,31,2022,3,16,False,True,True,1,False,4,0.1959914952314501,1.6167730269911018,20.4
15092,15097,4,127.4,12.3,73.8,22,4,1,2.8,2,0,1,1,0,3,3,2,1105,0,55.702794,37.666153,5,улица Трофимова,10,2002,2,22,False,True,True,0,True,0,0.09220627098525533,1.923181910922697,31.85
14787,14792,2,117.0,11.0,85.0,4,3,2,3.0,1,1,2,2,0,1,3,1,9293,0,55.896862,37.390667,8,Соколово-Мещерская улица,14к1,2007,2,6,False,True,True,3,False,0,0.2490453868181566,-0.8612836669818151,39.0
8540,8544,1,35.0,9.0,18.0,2,1,3,2.8,0,1,1,0,0,0,2,2,1715,0,55.820824,37.832952,3,Алтайская улица,33/7,1990,3,14,False,True,True,1,True,0,0.26760482068816704,1.2428075382953232,35.0
7811,7814,4,160.0,10.7,30.9,6,3,3,2.8,0,0,1,1,0,0,0,1,3372,0,55.696534,37.499408,7,Мичуринский проспект,29,1996,2,19,True,True,True,0,True,0,0.08878717038265921,-2.0141090978045546,53.333333333333336
14045,14050,2,80.0,12.0,57.0,31,3,1,2.8,2,0,1,0,0,0,3,1,3463,0,55.66559399999999,37.547594,6,Профсоюзная улица,64к2,2012,2,40,True,True,True,0,True,1,0.07608867319684699,-2.7072583383212607,26.666666666666668
6718,6721,1,107.9,12.4,54.0,7,4,1,2.8,1,1,0,1,0,2,0,2,1628,0,55.793348,37.448581,8,Живописная улица,21А,2011,2,32,True,True,True,0,False,0,0.14359148005588182,-1.149429097062255,26.975
15051,15056,0,57.7,19.0,33.0,10,2,1,2.8,2,0,1,0,1,0,0,1,8224,1,55.555184,37.554008,6,улица Поляны,5Ак1,2019,2,33,False,True,True,3,False,4,0.18125150859255978,-2.999852855852402,28.85
20688,20695,1,59.9,12.0,40.0,8,2,3,2.8,0,0,1,0,0,0,0,2,7718,1,55.791132,37.566871,1,Ленинградский проспект,36к13,2019,2,25,True,True,True,0,False,4,0.05793268456033157,-0.2217512410968114,29.95
12778,12782,1,127.0,18.0,72.0,9,3,3,2.8,2,0,2,2,0,0,3,1,5232,1,55.794107,37.770223,3,Измайловский проезд,10к2,2014,2,13,False,True,True,0,False,1,0.19967792778287077,1.2682776735526973,42.333333333333336
3930,3933,1,38.0,8.0,19.0,13,1,3,2.65,1,0,1,0,0,1,2,2,8899,0,55.738622,37.851763,3,Суздальская улица,12К5,1995,2,14,False,True,True,3,False,0,0.27217983740887525,1.5560844487709413,38.0
12194,12198,3,38.6,17.8,11.0,4,1,3,2.85,1,0,1,0,0,0,4,1,2679,1,55.751725,37.707009,4,Красноказарменная улица,14Ак4,2020,2,12,False,True,True,1,False,4,0.12853984713356537,1.4373121124251433,38.6
